"주차장관리번호",주차장명,주차장구분,주차장유형,소재지도로명주소,소재지지번주소,주차구획수,급지구분,부제시행구분,운영요일,평일운영시작시각,평일운영종료시각,토요일운영시작시각,토요일운영종료시각,공휴일운영시작시각,공휴일운영종료시각,요금정보,주차기본시간,주차기본요금,추가단위시간,추가단위요금,1일주차권요금적용시간,1일주차권요금,월정기권요금,결제방법,특기사항,관리기관명,전화번호,위도,경도,데이터기준일자
418-1-000011,중원 화천동,공영,노상,경상남도 창원시 진해구 중원동로 75 일원,경상남도 창원시 진해구 중원동로 75 일원,86,1,미시행,평일+토요일+공휴일,08:00,00:00,08:00,00:00,08:00,00:00,유료,30,500,10,200,,,,현금,,경상남도 창원시청,055-548-4434,35.15120000,128.66173900,2018-06-30
418-1-000003,중원로타리 ~ 남산초등교,공영,노상,경상남도 창원시 진해구 백구로 40 일원,경상남도 창원시 진해구 백구로 40 일원,66,1,미시행,평일+토요일+공휴일,00:00,00:00,00:00,00:00,00:00,00:00,무료,0,0,,,,,,,,경상남도 창원시청,055-548-4434,35.14862900,128.66043400,2018-06-30
418-1-000002,중원로타리 ~ 신흥동apt,공영,노상,경상남도 창원시 진해구 벚꽃로 13 일원,경상남도 창원시 진해구 벚꽃로 13 일원,5,1,미시행,평일+토요일+공휴일,00:00,00:00,00:00,00:00,00:00,00:00,무료,0,0,,,,,,,,경상남도 창원시청,055-548-4434,35.14873100,128.65831700,2018-06-30
418-1-000014,석동사거리,공영,노상,경상남도 창원시 진해구 석동 274 일원,경상남도 창원시 진해구 석동 274 일원,42,1,미시행,평일+토요일+공휴일,08:00,00:00,08:00,00:00,08:00,00:00,유료,30,500,10,200,,,,현금,,경상남도 창원시청,055-548-4434,35.15187500,128.70352700,2018-06-30
418-1-000007,진해여중고 앞,공영,노상,경상남도 창원시 진해구 여좌남로 25 일원,경상남도 창원시 진해구 여좌남로 25 일원,60,1,미시행,평일+토요일+공휴일,00:00,00:00,00:00,00:00,00:00,00:00,무료,0,0,,,,,,,,경상남도 창원시청,055-548-4434,35.15493100,128.65865200,2018-06-30
418-1-000008,인사동해군아파트 (제황공원),공영,노상,경상남도 창원시 진해구 제황로 55,경상남도 창원시 진해구 제황로 55,10,1,미시행,평일+토요일+공휴일,00:00,00:00,00:00,00:00,00:00,00:00,무료,0,0,,,,,,,,경상남도 창원시청,055-548-4434,35.14915800,128.66742900,2018-06-30
418-1-000004,구 시청 앞 ~ 인의동,공영,노상,경상남도 창원시 진해구 중원동로 27 일원,경상남도 창원시 진해구 중원동로 27 일원,140,1,미시행,평일+토요일+공휴일,00:00,00:00,00:00,00:00,00:00,00:00,무료,0,0,,,,,,,,경상남도 창원시청,055-548-4434,35.14700300,128.66095900,2018-06-30
418-1-000006,인본약국 앞,공영,노상,경상남도 창원시 진해구 중원로86번길 15 일원,경상남도 창원시 진해구 중원로86번길 15 일원,62,1,미시행,평일+토요일+공휴일,00:00,00:00,00:00,00:00,00:00,00:00,무료,0,0,,,,,,,,경상남도 창원시청,055-548-4434,35.15168600,128.66180900,2018-06-30
418-1-000009,복개천노상주차장,공영,노상,경상남도 창원시 진해구 중원서로 83 일원,경상남도 창원시 진해구 중원서로 83 일원,127,1,미시행,평일+토요일+공휴일,00:00,00:00,00:00,00:00,00:00,00:00,무료,0,0,,,,,,,,경상남도 창원시청,055-548-4434,35.15174600,128.65902100,2018-06-30
418-1-000012,진해루 노상주차장,공영,노상,경상남도 창원시 진해구 진희로 150 일원,경상남도 창원시 진해구 진희로 150 일원,142,1,미시행,평일+토요일+공휴일,00:00,00:00,00:00,00:00,00:00,00:00,무료,0,0,,,,,,,,경상남도 창원시청,055-548-4434,35.14717700,128.68491800,2018-06-30
418-1-000005,중원로타리 ~ 진해역,공영,노상,경상남도 창원시 진해구 충장로168번길 3 일원,경상남도 창원시 진해구 충장로168번길 3 일원,80,1,미시행,평일+토요일+공휴일,00:00,00:00,00:00,00:00,00:00,00:00,무료,0,0,,,,,,,,경상남도 창원시청,055-548-4434,35.15143900,128.67066400,2018-06-30
418-1-000010,태백동 테니스장 옆,공영,노상,경상남도 창원시 진해구 태백동 4-41,경상남도 창원시 진해구 태백동 4-41,12,1,미시행,평일+토요일+공휴일,00:00,00:00,00:00,00:00,00:00,00:00,무료,0,0,,,,,,,,경상남도 창원시청,055-548-4434,35.15768700,128.67368900,2018-06-30
418-1-000001,중원로타리 ~ 탑산입구,공영,노상,경상남도 창원시 진해구 통신동 9 일원,경상남도 창원시 진해구 통신동 9 일원,20,1,미시행,평일+토요일+공휴일,00:00,00:00,00:00,00:00,00:00,00:00,무료,0,0,,,,,,,,경상남도 창원시청,055-548-4434,35.14924200,128.66042800,2018-06-30
418-1-000013,남흥아파트 주변,공영,노상,경상남도 창원시 진해구 해원로 3 일원,경상남도 창원시 진해구 해원로 3 일원,28,1,미시행,평일+토요일+공휴일,00:00,00:00,00:00,00:00,00:00,00:00,무료,0,0,,,,,,,,경상남도 창원시청,055-548-4434,35.15377300,128.69476300,2018-06-30
416-1-000011,해안로공영주차장,공영,노상,경상남도 창원시 마산합포구 신포동1가 70,경상남도 창원시 마산합포구 신포동1가 70,107,1,미시행,평일+토요일+공휴일,00:00,00:00,00:00,00:00,00:00,00:00,무료,0,0,,,,,,,,경상남도 창원시청,055-220-4436,35.19883200,128.57299700,2018-06-30
416-1-000002,해안로공영유료주차장,공영,노상,경상남도 창원시 마산합포구신포동2가 64-2,경상남도 창원시 마산합포구 신포동2가 64-2,71,1,미시행,평일+토요일+공휴일,08:00,00:00,08:00,00:00,08:00,00:00,유료,30,500,10,200,16,6000,85000,현금,승용차기준,경상남도 창원시청,055-220-4436,35.20108400,128.57449800,2018-06-30
416-1-000001,장군동공영유료주차장,공영,노상,경상남도 창원시 마산합포구 3·15대로 211,경상남도 창원시 마산합포구 중앙동3가 3-8,43,1,미시행,평일+토요일+공휴일,08:00,00:00,08:00,00:00,08:00,00:00,유료,30,500,10,200,16,6000,85000,현금,승용차기준,경상남도 창원시청,055-220-4436,35.19709600,128.56645100,2018-06-30
417-1-000001,마산역공영주차장,공영,노상,경상남도 창원시 마산회원구 석전동 267,경상남도 창원시 마산회원구 석전동 267,147,1,미시행,평일+토요일+공휴일,08:00,00:00,08:00,00:00,08:00,00:00,유료,30,500,10,200,,,,현금+신용카드,"노상주차장 일,월주차 제한",경상남도 창원시청,055-230-4453,35.23458300,128.57939500,2018-06-30
417-1-000002,산호천공영주차장,공영,노상,경상남도 창원시 마산회원구 산호천서길 234 일원,경상남도 창원시 마산회원구 양덕동 36-2 일원,123,1,미시행,평일+토요일+공휴일,08:00,00:00,08:00,00:00,08:00,00:00,유료,30,500,10,200,,,,현금+신용카드,"노상주차장 일,월주차 제한",경상남도 창원시청,055-230-4453,35.22218300,128.58930100,2018-06-30
417-1-000002,산호천공영주차장,공영,노상,경상남도 창원시 마산회원구 산호천서길 234 일원,경상남도 창원시 마산회원구 양덕동 36-2 일원,123,1,미시행,평일+토요일+공휴일,08:00,00:00,08:00,00:00,08:00,00:00,유료,30,500,10,200,,,,현금+신용카드,"노상주차장 일,월주차 제한",경상남도 창원시청,055-230-4455,35.22218300,128.58930100,2018-06-30
417-1-000001,마산역공영주차장,공영,노상,경상남도 창원시 마산회원구 석전동 267,경상남도 창원시 마산회원구 석전동 267,147,1,미시행,평일+토요일+공휴일,08:00,00:00,08:00,00:00,08:00,00:00,유료,30,500,10,200,,,,현금+신용카드,"노상주차장 일,월주차 제한",경상남도 창원시청,055-230-4455,35.23458300,128.57939500,2018-06-30
415-1-000032,반월로 노상주차장,공영,노상,경상남도 창원시 성산구 신촌동 190,경상남도 창원시 성산구 신촌동 190,32,1,미시행,평일+토요일+공휴일,00:00,00:00,00:00,00:00,00:00,00:00,무료,0,0,,,,,,,,경상남도 창원시청,055-272-4431,35.21072800,128.62964000,2018-06-30
415-1-000003,외동반림동 74번길 노상주차장,공영,노상,경상남도 창원시 성산구 외동반림로74번길,경상남도 창원시 성산구 중앙동 31-15,86,1,미시행,평일+토요일+공휴일,00:00,00:00,00:00,00:00,00:00,00:00,무료,0,0,,,,,,,,경상남도 창원시청,055-272-4431,35.22640600,128.67355200,2018-06-30
415-1-000016,가양로 노상주차장,공영,노상,경상남도 창원시 성산구 가음동 502-3,경상남도 창원시 성산구 가음동 502-3,81,1,미시행,평일+토요일+공휴일,00:00,00:00,00:00,00:00,00:00,00:00,무료,0,0,,,,,,,,경상남도 창원시청,055-272-4431,35.20882200,128.69965400,2018-06-30
415-1-000015,원이대로 883번길 노상주차장,공영,노상,경상남도 창원시 성산구 원이대로883번길,경상남도 창원시 성산구 가음동 500-3,30,1,미시행,평일+토요일+공휴일,00:00,00:00,00:00,00:00,00:00,00:00,무료,0,0,,,,,,,,경상남도 창원시청,055-272-4431,35.20684000,128.69675000,2018-06-30
415-1-000014,가음로 13번길 노상주차장,공영,노상,경상남도 창원시 성산구 남양동 503-1,경상남도 창원시 성산구 남양동 503-1,178,1,미시행,평일+토요일+공휴일,00:00,00:00,00:00,00:00,00:00,00:00,무료,0,0,,,,,,,,경상남도 창원시청,055-272-4431,35.21198600,128.69968600,2018-06-30
415-1-000013,가양로(개나리 4차아파트 옆) 노상주차장,공영,노상,경상남도 창원시 성산구 남양동 504,경상남도 창원시 성산구 남양동 504,104,1,미시행,평일+토요일+공휴일,00:00,00:00,00:00,00:00,00:00,00:00,무료,0,0,,,,,,,,경상남도 창원시청,055-272-4431,35.20874400,128.70362600,2018-06-30
415-1-000012,비음로 노상주차장,공영,노상,경상남도 창원시 성산구 대방동 263,경상남도 창원시 성산구 대방동 263,36,1,미시행,평일+토요일+공휴일,00:00,00:00,00:00,00:00,00:00,00:00,무료,0,0,,,,,,,,경상남도 창원시청,055-272-4431,35.21666700,128.71071400,2018-06-30
415-1-000011,가양로 136번길 노상주차장,공영,노상,경상남도 창원시 성산구 가양로136번길,경상남도 창원시 성산구 대방동 381,34,1,미시행,평일+토요일+공휴일,00:00,00:00,00:00,00:00,00:00,00:00,무료,0,0,,,,,,,,경상남도 창원시청,055-272-4431,35.20837500,128.70825400,2018-06-30
415-1-000010,토월로 노상주차장,공영,노상,경상남도 창원시 성산구 상남동 98-4,경상남도 창원시 성산구 상남동 98-4,24,1,미시행,평일+토요일+공휴일,00:00,00:00,00:00,00:00,00:00,00:00,무료,0,0,,,,,,,,경상남도 창원시청,055-272-4431,35.21750000,128.68260200,2018-06-30
415-1-000009,외동반림로 노상주차장,공영,노상,경상남도 창원시 성산구 중앙동 507-7,경상남도 창원시 성산구 중앙동 507-7,10,1,미시행,평일+토요일+공휴일,00:00,00:00,00:00,00:00,00:00,00:00,무료,0,0,,,,,,,,경상남도 창원시청,055-272-4431,35.22388700,128.67632000,2018-06-30
415-1-000008,남면로 노상주차장,공영,노상,경상남도 창원시 성산구 가음정동 390,경상남도 창원시 성산구 가음정동 390,330,1,미시행,평일+토요일+공휴일,00:00,00:00,00:00,00:00,00:00,00:00,무료,0,0,,,,,,,,경상남도 창원시청,055-272-4431,35.20555200,128.68035700,2018-06-30
415-1-000007,성산패총로(성산패총입구) 노상주차장,공영,노상,경상남도 창원시 성산구 외동 854,경상남도 창원시 성산구 외동 854,86,1,미시행,평일+토요일+공휴일,00:00,00:00,00:00,00:00,00:00,00:00,무료,0,0,,,,,,,,경상남도 창원시청,055-272-4431,35.20811700,128.67599100,2018-06-30
415-1-000006,삼동로 128번길(월드메르디앙 옆) 노상주차장,공영,노상,경상남도 창원시 성산구 삼동로128번길,경상남도 창원시 성산구 내동 452-12,67,1,미시행,평일+토요일+공휴일,00:00,00:00,00:00,00:00,00:00,00:00,무료,0,0,,,,,,,,경상남도 창원시청,055-272-4431,35.22463700,128.65682100,2018-06-30
415-1-000005,삼동로 128번길(효성사원아파트 옆) 노상주차장,공영,노상,경상남도 창원시 성산구 삼동로128번길,경상남도 창원시 성산구 내동 454-8,67,1,미시행,평일+토요일+공휴일,00:00,00:00,00:00,00:00,00:00,00:00,무료,0,0,,,,,,,,경상남도 창원시청,055-272-4431,35.22107500,128.66306500,2018-06-30
415-1-000004,연덕로 184번길 노상주차장,공영,노상,경상남도 창원시 성산구 연덕로184번길,경상남도 창원시 성산구 내동 456-10,32,1,미시행,평일+토요일+공휴일,00:00,00:00,00:00,00:00,00:00,00:00,무료,0,0,,,,,,,,경상남도 창원시청,055-272-4431,35.21831700,128.66759100,2018-06-30
415-1-000017,가음정로 노상주차장,공영,노상,경상남도 창원시 성산구 가음동 511,경상남도 창원시 성산구 가음동 511,79,1,미시행,평일+토요일+공휴일,00:00,00:00,00:00,00:00,00:00,00:00,무료,0,0,,,,,,,,경상남도 창원시청,055-272-4431,35.20255600,128.70044300,2018-06-30
415-1-000031,반월로 67번길 노상주차장,공영,노상,경상남도 창원시 성산구 반월로67번길,경상남도 창원시 성산구 신촌동 192-4,135,1,미시행,평일+토요일+공휴일,00:00,00:00,00:00,00:00,00:00,00:00,무료,0,0,,,,,,,,경상남도 창원시청,055-272-4431,35.20718000,128.63879700,2018-06-30
415-1-000030,월림로 노상주차장,공영,노상,경상남도 창원시 성산구 신촌동 190,경상남도 창원시 성산구 신촌동 190,131,1,미시행,평일+토요일+공휴일,00:00,00:00,00:00,00:00,00:00,00:00,무료,0,0,,,,,,,,경상남도 창원시청,055-272-4431,35.21072800,128.62964000,2018-06-30
415-1-000029,월림로 67번길 노상주차장,공영,노상,경상남도 창원시 성산구 월림로67번길,경상남도 창원시 성산구 신촌동 114-4,58,1,미시행,평일+토요일+공휴일,00:00,00:00,00:00,00:00,00:00,00:00,무료,0,0,,,,,,,,경상남도 창원시청,055-272-4431,35.20755800,128.64017700,2018-06-30
415-1-000028,월림로 65번길 노상주차장,공영,노상,경상남도 창원시 성산구 월림로65번길,경상남도 창원시 성산구 신촌동 503-7,213,1,미시행,평일+토요일+공휴일,00:00,00:00,00:00,00:00,00:00,00:00,무료,0,0,,,,,,,,경상남도 창원시청,055-272-4431,35.21113200,128.64207000,2018-06-30
415-1-000027,공단로 166번길 노상주차장,공영,노상,경상남도 창원시 성산구 공단로166번길,경상남도 창원시 성산구 신촌동 119-5,69,1,미시행,평일+토요일+공휴일,00:00,00:00,00:00,00:00,00:00,00:00,무료,0,0,,,,,,,,경상남도 창원시청,055-272-4431,35.21173500,128.64422800,2018-06-30
415-1-000026,공단로 271번길 노상주차장,공영,노상,경상남도 창원시 성산구 공단로271번길,경상남도 창원시 성산구 웅남동 513,145,1,미시행,평일+토요일+공휴일,00:00,00:00,00:00,00:00,00:00,00:00,무료,0,0,,,,,,,,경상남도 창원시청,055-272-4431,35.21541500,128.65473800,2018-06-30
415-1-000025,연덕로 15번길 노상주차장,공영,노상,경상남도 창원시 성산구 연덕로15번길,경상남도 창원시 성산구 웅남동 61-75,154,1,미시행,평일+토요일+공휴일,00:00,00:00,00:00,00:00,00:00,00:00,무료,0,0,,,,,,,,경상남도 창원시청,055-272-4431,35.20770900,128.65372200,2018-06-30
415-1-000024,연덕로(강림중공업 옆) 노상주차장,공영,노상,경상남도 창원시 성산구 웅남동 69,경상남도 창원시 성산구 웅남동 69,106,1,미시행,평일+토요일+공휴일,00:00,00:00,00:00,00:00,00:00,00:00,무료,0,0,,,,,,,,경상남도 창원시청,055-272-4431,35.20982900,128.65823200,2018-06-30
415-1-000023,완암로(테크노파크 옆) 노상주차장,공영,노상,경상남도 창원시 성산구 웅남동 514,경상남도 창원시 성산구 웅남동 514,95,1,미시행,평일+토요일+공휴일,00:00,00:00,00:00,00:00,00:00,00:00,무료,0,0,,,,,,,,경상남도 창원시청,055-272-4431,35.20415300,128.66040100,2018-06-30
415-1-000022,완암로(윤성정밀 옆) 노상주차장,공영,노상,경상남도 창원시 성산구 웅남동 69,경상남도 창원시 성산구 웅남동 69,82,1,미시행,평일+토요일+공휴일,00:00,00:00,00:00,00:00,00:00,00:00,무료,0,0,,,,,,,,경상남도 창원시청,055-272-4431,35.20982900,128.65823200,2018-06-30
415-1-000001,창원천로 노상주차장,공영,노상,경상남도 창원시 성산구 반지동 512-4,경상남도 창원시 성산구 반지동 512-4,76,1,미시행,평일+토요일+공휴일,00:00,00:00,00:00,00:00,00:00,00:00,무료,0,0,,,,,,,,경상남도 창원시청,055-272-4431,35.24507500,128.67101600,2018-06-30
415-1-000021,공단로 474번길 노상주차장,공영,노상,경상남도 창원시 성산구 공단로474번길,경상남도 창원시 성산구 성산동 518,53,1,미시행,평일+토요일+공휴일,00:00,00:00,00:00,00:00,00:00,00:00,무료,0,0,,,,,,,,경상남도 창원시청,055-272-4431,35.20063400,128.67411700,2018-06-30
415-1-000020,공단로 473번길 노상주차장,공영,노상,경상남도 창원시 성산구 공단로473번길,경상남도 창원시 성산구 성산동 518,187,1,미시행,평일+토요일+공휴일,00:00,00:00,00:00,00:00,00:00,00:00,무료,0,0,,,,,,,,경상남도 창원시청,055-272-4431,35.20063400,128.67411700,2018-06-30
415-1-000019,성산패총로(한화테크 옆) 노상주차장,공영,노상,경상남도 창원시 성산구 성산동 518,경상남도 창원시 성산구 성산동 518,106,1,미시행,평일+토요일+공휴일,00:00,00:00,00:00,00:00,00:00,00:00,무료,0,0,,,,,,,,경상남도 창원시청,055-272-4431,35.20063400,128.67411700,2018-06-30
415-1-000018,성주동 519-1 노상주차장,공영,노상,경상남도 창원시 성산구 성주동 519-1,경상남도 창원시 성산구 성주동 519-1,80,1,미시행,평일+토요일+공휴일,00:00,00:00,00:00,00:00,00:00,00:00,무료,0,0,,,,,,,,경상남도 창원시청,055-272-4431,35.19301600,128.68300100,2018-06-30
415-1-000002,까치아파트옆 노상주차장,공영,노상,경상남도 창원시 성산구 반지동 512-7,경상남도 창원시 성산구 반지동 512-7,78,1,미시행,평일+토요일+공휴일,00:00,00:00,00:00,00:00,00:00,00:00,무료,0,0,,,,,,,,경상남도 창원시청,055-272-4431,35.24486200,128.66706400,2018-06-30
415-1-000037,충혼로 72번길 노상주차장,공영,노상,경상남도 창원시 성산구 충혼로72번길,경상남도 창원시 성산구 중앙동 506-1,160,1,미시행,평일+토요일+공휴일,00:00,00:00,00:00,00:00,00:00,00:00,무료,0,0,,,,,,,,경상남도 창원시청,055-272-4431,35.22388700,128.67632000,2018-06-30
415-1-000036,가음로 15번길 노상주차장,공영,노상,경상남도 창원시 성산구 가음로15번길,경상남도 창원시 성산구 남양동 22-1,34,1,미시행,평일+토요일+공휴일,00:00,00:00,00:00,00:00,00:00,00:00,무료,0,0,,,,,,,,경상남도 창원시청,055-272-4431,35.21194300,128.70193000,2018-06-30
415-1-000035,공단로 103번길 노상주차장,공영,노상,경상남도 창원시 성산구 공단로103번길,경상남도 창원시 성산구 신촌동 86,65,1,미시행,평일+토요일+공휴일,00:00,00:00,00:00,00:00,00:00,00:00,무료,0,0,,,,,,,,경상남도 창원시청,055-272-4431,35.21521300,128.63525500,2018-06-30
415-1-000034,적현로 279번길 노상주차장,공영,노상,경상남도 창원시 성산구 적현로279번길,경상남도 창원시 성산구 신촌동 58-2,128,1,미시행,평일+토요일+공휴일,00:00,00:00,00:00,00:00,00:00,00:00,무료,0,0,,,,,,,,경상남도 창원시청,055-272-4431,35.19891400,128.60605100,2018-06-30
415-1-000033,신촌로 노상주차장,공영,노상,경상남도 창원시 성산구 신촌동 42,경상남도 창원시 성산구 신촌동 42,21,1,미시행,평일+토요일+공휴일,00:00,00:00,00:00,00:00,00:00,00:00,무료,0,0,,,,,,,,경상남도 창원시청,055-272-4431,35.20750100,128.62642700,2018-06-30
414-1-000106,금강로379번길(소계동746번지 도로부지 일대) 공영주차장,공영,노상,경상남도 창원시 의창구 금강로379번길,경상남도 창원시 의창구 소계동746번지,52,1,미시행,평일+토요일+공휴일,00:00,00:00,00:00,00:00,00:00,00:00,무료,0,0,,,,,,,,경상남도 창원시청,055-212-4435,35.25914200,128.60193100,2018-06-30
414-1-000105,남산로1번길(임진각식당 인근) 공영주차장,공영,노상,경상남도 창원시 의창구 남산로1번길(임진각식당 인근),,99,1,미시행,평일+토요일+공휴일,00:00,00:00,00:00,00:00,00:00,00:00,무료,0,0,,,,,,,,경상남도 창원시청,055-212-4435,35.26125900,128.61787700,2018-06-30
414-1-000120,대산북로(대산면 모산리 143-4번지) 공영주차장,공영,노상,경상남도 창원시 의창구 대산북로,경상남도 창원시 의창구 대산면 모산리 143-4번지,33,1,미시행,평일+토요일+공휴일,00:00,00:00,00:00,00:00,00:00,00:00,무료,0,0,,,,,,,,경상남도 창원시청,055-212-4435,35.35751100,128.71272000,2018-06-30
414-1-000094,현대아파트~동양상가 공영주차장,공영,노상,경상남도 창원시 의창구 대원로 93번길(현대아파트~동양상가),,73,1,미시행,평일+토요일+공휴일,00:00,00:00,00:00,00:00,00:00,00:00,무료,0,0,,,,,,,,경상남도 창원시청,055-212-4435,35.23552300,128.64955300,2018-06-30
414-1-000127,도계로163번걸(명서동19-20~19-11) 공영주차장,공영,노상,경상남도 창원시 의창구 도계로163번걸,경상남도 창원시 의창구 명서동19-20~19-11,21,1,미시행,평일+토요일+공휴일,00:00,00:00,00:00,00:00,00:00,00:00,무료,0,0,,,,,,,,경상남도 창원시청,055-212-4435,35.25150600,128.64047600,2018-06-30
414-1-000128,도계로163번걸 맞은편(위브공원앞 하천길) 공영주차장,공영,노상,경상남도 창원시 의창구 도계로163번걸 맞은편(위브공원앞 하천길),,21,1,미시행,평일+토요일+공휴일,00:00,00:00,00:00,00:00,00:00,00:00,무료,0,0,,,,,,,,경상남도 창원시청,055-212-4435,35.25150600,128.64047600,2018-06-30
414-1-000115,명서로(명서동132-10번지~명서동145-18번지 앞) 공영주차장,공영,노상,경상남도 창원시 의창구 명서로,경상남도 창원시 의창구 명서동132-10번지~명서동145-18번지 앞,55,1,미시행,평일+토요일+공휴일,00:00,00:00,00:00,00:00,00:00,00:00,무료,0,0,,,,,,,,경상남도 창원시청,055-212-4435,35.24539400,128.64591300,2018-06-30
414-1-000112,명서로(명서동34-7번지~명서동 151-8번지) 공영주차장,공영,노상,경상남도 창원시 의창구 명서로,경상남도 창원시 의창구 명서동34-7번지~명서동 151-8번지,37,1,미시행,평일+토요일+공휴일,00:00,00:00,00:00,00:00,00:00,00:00,무료,0,0,,,,,,,,경상남도 창원시청,055-212-4435,35.25128700,128.64827400,2018-06-30
414-1-000129,명지로14번길(명서동 18-24~18-13) 공영주차장,공영,노상,경상남도 창원시 의창구 명지로14번길,경상남도 창원시 의창구 명서동 18-24~18-13,26,1,미시행,평일+토요일+공휴일,00:00,00:00,00:00,00:00,00:00,00:00,무료,0,0,,,,,,,,경상남도 창원시청,055-212-4435,35.25053800,128.64191400,2018-06-30
414-1-000126,무역로581번길(농산물도매시장 앞) 공영주차장,공영,노상,경상남도 창원시 의창구 무역로581번길(농산물도매시장 앞),,23,1,미시행,평일+토요일+공휴일,00:00,00:00,00:00,00:00,00:00,00:00,무료,0,0,,,,,,,,경상남도 창원시청,055-212-4435,35.22994900,128.63820000,2018-06-30
414-1-000096,반계로(동서식품 창원공장)  공영주차장,공영,노상,경상남도 창원시 의창구 반계로(동서식품 창원공장),,98,1,미시행,평일+토요일+공휴일,00:00,00:00,00:00,00:00,00:00,00:00,무료,0,0,,,,,,,,경상남도 창원시청,055-212-4435,35.25187900,128.61511200,2018-06-30
414-1-000119,봉강가술로394번길 공영주차장,공영,노상,경상남도 창원시 의창구 봉강가술로394번길,경상남도 창원시 의창구 대산면 대방리 569,10,1,미시행,평일+토요일+공휴일,00:00,00:00,00:00,00:00,00:00,00:00,무료,0,0,,,,,,,,경상남도 창원시청,055-212-4435,35.34119200,128.69446500,2018-06-30
414-1-000116,봉곡로23번길(봉곡동70-5번지~봉곡동70-8번지) 공영주차장,공영,노상,경상남도 창원시 의창구 봉곡로23번길,경상남도 창원시 의창구 봉곡동70-5번지~봉곡동70-8번지,6,1,미시행,평일+토요일+공휴일,00:00,00:00,00:00,00:00,00:00,00:00,무료,0,0,,,,,,,,경상남도 창원시청,055-212-4435,35.24798200,128.65943700,2018-06-30
414-1-000121,"상남로(창원중앙역진입도로, 창원대~창원중앙역) 공영주차장",공영,노상,"경상남도 창원시 의창구 상남로(창원중앙역진입도로, 창원대~창원중앙역)",,151,1,미시행,평일+토요일+공휴일,00:00,00:00,00:00,00:00,00:00,00:00,무료,0,0,,,,,,,,경상남도 창원시청,055-212-4435,35.24267500,128.70159000,2018-06-30
414-1-000141,용지호수앞 공영주차장,공영,노상,경상남도 창원시 의창구 용지로169번길,,90,1,미시행,평일+토요일+공휴일,08:00,00:00,08:00,00:00,08:00,00:00,유료,30,500,,,,,,,,경상남도 창원시청,055-212-4435,35.23031100,128.68094900,2018-06-30
414-1-000110,우곡로(명서동12-1번지~명서동12-8번지) 공영주차장,공영,노상,경상남도 창원시 의창구 우곡로,경상남도 창원시 의창구 명서동12-1번지~명서동12-8번지,12,1,미시행,평일+토요일+공휴일,00:00,00:00,00:00,00:00,00:00,00:00,무료,0,0,,,,,,,,경상남도 창원시청,055-212-4435,35.25111300,128.63732000,2018-06-30
414-1-000136,경남은행명곡지점 공영주차장,공영,노상,경상남도 창원시 의창구 원이대로 265,,38,1,미시행,평일+토요일+공휴일,08:00,00:00,08:00,00:00,08:00,00:00,유료,30,500,,,,,,,,경상남도 창원시청,055-212-4435,35.24350000,128.64931300,2018-06-30
414-1-000123,원이대로114번길(곰두리체육센터 앞) 공영주차장,공영,노상,경상남도 창원시 의창구 원이대로114번길(곰두리체육센터 앞),,25,1,미시행,평일+토요일+공휴일,00:00,00:00,00:00,00:00,00:00,00:00,무료,0,0,,,,,,,,경상남도 창원시청,055-212-4435,35.25280400,128.63684800,2018-06-30
414-1-000124,원이대로114번길(서부경찰서 뒤편) 공영주차장,공영,노상,경상남도 창원시 의창구 원이대로114번길(서부경찰서 뒤편),,51,1,미시행,평일+토요일+공휴일,00:00,00:00,00:00,00:00,00:00,00:00,무료,0,0,,,,,,,,경상남도 창원시청,055-212-4435,35.25169300,128.63686900,2018-06-30
414-1-000130,원이대로215번길(명서동 39-1~82-12) 공영주차장,공영,노상,경상남도 창원시 의창구 원이대로215번길,경상남도 창원시 의창구 명서동 39-1~82-12,26,1,미시행,평일+토요일+공휴일,00:00,00:00,00:00,00:00,00:00,00:00,무료,0,0,,,,,,,,경상남도 창원시청,055-212-4435,35.24878500,128.64229400,2018-06-30
414-1-000131,원이대로219번길(명서동 38-1~132-1) 공영주차장,공영,노상,경상남도 창원시 의창구 원이대로219번길,경상남도 창원시 의창구 명서동 38-1~132-1,53,1,미시행,평일+토요일+공휴일,00:00,00:00,00:00,00:00,00:00,00:00,무료,0,0,,,,,,,,경상남도 창원시청,055-212-4435,35.24943400,128.64346400,2018-06-30
414-1-000113,원이대로220번길(명서동131-12번지 ~ 105-15번지) 공영주차장,공영,노상,경상남도 창원시 의창구 원이대로220번길,경상남도 창원시 의창구 명서동131-12번지 ~ 105-15번지,47,1,미시행,평일+토요일+공휴일,00:00,00:00,00:00,00:00,00:00,00:00,무료,0,0,,,,,,,,경상남도 창원시청,055-212-4435,35.24508900,128.64455800,2018-06-30
414-1-000114,원이대로224번길(명서동181-1번지~명서동191-14번지 앞) 공영주차장,공영,노상,경상남도 창원시 의창구 원이대로224번길,경상남도 창원시 의창구 명서동181-1번지~명서동191-14번지 앞,62,1,미시행,평일+토요일+공휴일,00:00,00:00,00:00,00:00,00:00,00:00,무료,0,0,,,,,,,,경상남도 창원시청,055-212-4435,35.24479300,128.64529100,2018-06-30
414-1-000135,용호상가 공영주차장,공영,노상,경상남도 창원시 의창구 원이대로579번길 8,,123,1,미시행,평일+토요일+공휴일,08:00,00:00,08:00,00:00,08:00,00:00,유료,30,500,,,,,,,,경상남도 창원시청,055-212-4435,35.22909300,128.67932200,2018-06-30
414-1-000109,원이대로81번길(도계동346-11번지~도계동397-5번지) 공영주차장,공영,노상,경상남도 창원시 의창구 원이대로81번길,경상남도 창원시 의창구 도계동346-11번지~도계동397-5번지,54,1,미시행,평일+토요일+공휴일,00:00,00:00,00:00,00:00,00:00,00:00,무료,0,0,,,,,,,,경상남도 창원시청,055-212-4435,35.25574500,128.63605900,2018-06-30
414-1-000108,"정렬대로(동정동 산30-8번지, 국도 출구 램프구간) 공영주차장",공영,노상,경상남도 창원시 의창구 정렬대로,경상남도 창원시 의창구 동정동 산30-8번지,8,1,미시행,평일+토요일+공휴일,00:00,00:00,00:00,00:00,00:00,00:00,무료,0,0,,,,,,,,경상남도 창원시청,055-212-4435,35.26888700,128.61330700,2018-06-30
414-1-000104,죽전로(죽전사거리~사화로 접합부) 공영주차장,공영,노상,경상남도 창원시 의창구 죽전로(죽전사거리~사화로 접합부),,56,1,미시행,평일+토요일+공휴일,00:00,00:00,00:00,00:00,00:00,00:00,무료,0,0,,,,,,,,경상남도 창원시청,055-212-4435,35.24553800,128.62157100,2018-06-30
414-1-000098,죽전로(죽전사거리~죽전로삼거리) 공영주차장,공영,노상,경상남도 창원시 의창구 죽전로(죽전사거리~죽전로삼거리),,122,1,미시행,평일+토요일+공휴일,00:00,00:00,00:00,00:00,00:00,00:00,무료,0,0,,,,,,,,경상남도 창원시청,055-212-4435,35.24401000,128.62024400,2018-06-30
414-1-000102,죽전로74번길(코리아펀치~㈜마스터) 공영주차장,공영,노상,경상남도 창원시 의창구 죽전로74번길(코리아펀치~㈜마스터),,100,1,미시행,평일+토요일+공휴일,00:00,00:00,00:00,00:00,00:00,00:00,무료,0,0,,,,,,,,경상남도 창원시청,055-212-4435,35.24526100,128.62604500,2018-06-30
414-1-000142,중심업무지구 공영주차장,공영,노상,"경상남도 창원시 의창구 중앙대로160,186,210번길",,361,1,미시행,평일+토요일+공휴일,08:00,00:00,08:00,00:00,08:00,00:00,유료,30,500,,,,,,,,경상남도 창원시청,055-212-4435,35.23158100,128.68817100,2018-06-30
414-1-000139,시청뒷길 공영주차장,공영,노상,경상남도 창원시 의창구 중앙대로161번길,,65,1,미시행,평일+토요일+공휴일,08:00,00:00,08:00,00:00,08:00,00:00,유료,30,500,,,,,,,,경상남도 창원시청,055-212-4435,35.22877100,128.68255600,2018-06-30
414-1-000117,지귀로73번길(봉곡동10-10번지~봉곡동3-15번지) 공영주차장,공영,노상,경상남도 창원시 의창구 지귀로73번길,경상남도 창원시 의창구 봉곡동10-10번지~봉곡동3-15번지,34,1,미시행,평일+토요일+공휴일,00:00,00:00,00:00,00:00,00:00,00:00,무료,0,0,,,,,,,,경상남도 창원시청,055-212-4435,35.24758100,128.65426600,2018-06-30
414-1-000122,"지귀로95번길(봉곡동 502-6, 코오롱아파트 앞) 공영주차장",공영,노상,경상남도 창원시 의창구 지귀로95번길(코오롱아파트 앞),"경상남도 창원시 의창구 봉곡동 502-6, 코오롱아파트 앞",19,1,미시행,평일+토요일+공휴일,00:00,00:00,00:00,00:00,00:00,00:00,무료,0,0,,,,,,,,경상남도 창원시청,055-212-4435,35.24681000,128.65830600,2018-06-30
414-1-000095,차룡단지로 177~평산로 접합부 공영주차장,공영,노상,경상남도 창원시 의창구 차룡단지로(차룡단지로 177~평산로 접합부),,346,1,미시행,평일+토요일+공휴일,00:00,00:00,00:00,00:00,00:00,00:00,무료,0,0,,,,,,,,경상남도 창원시청,055-212-4435,35.23775800,128.62997100,2018-06-30
414-1-000103,차룡로(차룡사거리~사화로 접합부) 공영주차장,공영,노상,경상남도 창원시 의창구 차룡로(차룡사거리~사화로 접합부),,70,1,미시행,평일+토요일+공휴일,00:00,00:00,00:00,00:00,00:00,00:00,무료,0,0,,,,,,,,경상남도 창원시청,055-212-4435,35.24259400,128.62679300,2018-06-30
414-1-000100,차룡로(차룡사거리~차룡삼거리) 공영주차장,공영,노상,경상남도 창원시 의창구 차룡로(차룡사거리~차룡삼거리),,58,1,미시행,평일+토요일+공휴일,00:00,00:00,00:00,00:00,00:00,00:00,무료,0,0,,,,,,,,경상남도 창원시청,055-212-4435,35.24274300,128.62635800,2018-06-30
414-1-000101,차룡로48번길(LPG가스충전소~임시화물터미널) 공영주차장,공영,노상,경상남도 창원시 의창구 차룡로48번길(LPG가스충전소~임시화물터미널),,139,1,미시행,평일+토요일+공휴일,00:00,00:00,00:00,00:00,00:00,00:00,무료,0,0,,,,,,,,경상남도 창원시청,055-212-4435,35.24202100,128.63221900,2018-06-30
414-1-000133,차상로(팔용동87-1~87-16) 공영주차장,공영,노상,경상남도 창원시 의창구 차상로(팔용동87-1~87-16),,31,1,미시행,평일+토요일+공휴일,00:00,00:00,00:00,00:00,00:00,00:00,무료,0,0,,,,,,,,경상남도 창원시청,055-212-4435,35.25369600,128.61412200,2018-06-30
414-1-000099,창원대로204번길(죽전삼거리~차룡단지로 접합부) 공영주차장,공영,노상,경상남도 창원시 의창구 창원대로204번길(죽전삼거리~차룡단지로 접합부),,62,1,미시행,평일+토요일+공휴일,00:00,00:00,00:00,00:00,00:00,00:00,무료,0,0,,,,,,,,경상남도 창원시청,055-212-4435,35.23980300,128.62145600,2018-06-30
414-1-000140,용원2길 공영주차장,공영,노상,경상남도 창원시 의창구 창원대로397번길,,36,1,미시행,평일+토요일+공휴일,08:00,00:00,08:00,00:00,08:00,00:00,유료,30,500,,,,,,,,경상남도 창원시청,055-212-4435,35.23555400,128.64275300,2018-06-30
414-1-000107,"천주로(소답동 740번지, 국도 진입부 램프구간) 공영주차장",공영,노상,경상남도 창원시 의창구 천주로,경상남도 창원시 의창구 소답동 740번지,70,1,미시행,평일+토요일+공휴일,00:00,00:00,00:00,00:00,00:00,00:00,무료,0,0,,,,,,,,경상남도 창원시청,055-212-4435,35.27075300,128.61507200,2018-06-30
414-1-000125,천주로(북창원IC입구) 공영주차장,공영,노상,경상남도 창원시 의창구 천주로(북창원IC입구),,31,1,미시행,평일+토요일+공휴일,00:00,00:00,00:00,00:00,00:00,00:00,무료,0,0,,,,,,,,경상남도 창원시청,055-212-4435,35.28642200,128.60559900,2018-06-30
414-1-000111,태복산로(명서동24-1번지~명서동24-14 맞은편) 공영주차장,공영,노상,경상남도 창원시 의창구 태복산로,경상남도 창원시 의창구 명서동24-1번지~명서동24-14 맞은편,5,1,미시행,평일+토요일+공휴일,00:00,00:00,00:00,00:00,00:00,00:00,무료,0,0,,,,,,,,경상남도 창원시청,055-212-4435,35.25292200,128.64061000,2018-06-30
414-1-000132,태복산로13번길(도계동 892 앞) 공영주차장,공영,노상,경상남도 창원시 의창구 태복산로13번길(도계동 892 앞),,8,1,미시행,평일+토요일+공휴일,00:00,00:00,00:00,00:00,00:00,00:00,무료,0,0,,,,,,,,경상남도 창원시청,055-212-4435,35.25512300,128.63841400,2018-06-30
414-1-000097,평산로(평산사거리~차룡단지로 접합부) 공영주차장,공영,노상,경상남도 창원시 의창구 평산로(평산사거리~차룡단지로 접합부),,142,1,미시행,평일+토요일+공휴일,00:00,00:00,00:00,00:00,00:00,00:00,무료,0,0,,,,,,,,경상남도 창원시청,055-212-4435,35.24901100,128.61680600,2018-06-30
418-2-000136,용원구검문소 근처,공영,노외,경상남도 창원시 진해구 가주동 180-23,경상남도 창원시 진해구 가주동 180-23,17,1,미시행,평일+토요일+공휴일,00:00,00:00,00:00,00:00,00:00,00:00,무료,0,0,,,,,,,,경상남도 창원시청,055-548-4434,35.10358300,128.83734800,2018-06-30
418-2-000066,경화동사무소주차장,공영,노외,경상남도 창원시 진해구 경화동 106-1,경상남도 창원시 진해구 경화동 106-1,12,1,미시행,평일+토요일+공휴일,00:00,00:00,00:00,00:00,00:00,00:00,무료,0,0,,,,,,,,경상남도 창원시청,055-548-4434,35.15419800,128.68662300,2018-06-30
418-2-000055,태백고가다리근처,공영,노외,경상남도 창원시 진해구 경화동 1132-1,경상남도 창원시 진해구 경화동 1132-1,7,1,미시행,평일+토요일+공휴일,00:00,00:00,00:00,00:00,00:00,00:00,무료,0,0,,,,,,,,경상남도 창원시청,055-548-4434,35.15712600,128.68060000,2018-06-30
418-2-000063,태백동공영주차장,공영,노외,경상남도 창원시 진해구 경화동 1132-7,경상남도 창원시 진해구 경화동 1132-7,31,1,미시행,평일+토요일+공휴일,00:00,00:00,00:00,00:00,00:00,00:00,무료,0,0,,,,,,,,경상남도 창원시청,055-548-4434,35.15709700,128.68086300,2018-06-30
418-2-000068,경화공영주차장(옥포상가근처),공영,노외,경상남도 창원시 진해구 경화동 1138-5 일원,경상남도 창원시 진해구 경화동 1138-5 일원,45,1,미시행,평일+토요일+공휴일,00:00,00:00,00:00,00:00,00:00,00:00,무료,0,0,,,,,,,,경상남도 창원시청,055-548-4434,35.15717600,128.68442000,2018-06-30
418-2-000059,태백7통공영주차장,공영,노외,경상남도 창원시 진해구 경화동 1139-5,경상남도 창원시 진해구 경화동 1139-5,10,1,미시행,평일+토요일+공휴일,00:00,00:00,00:00,00:00,00:00,00:00,무료,0,0,,,,,,,,경상남도 창원시청,055-548-4434,35.15496000,128.67619100,2018-06-30
418-2-000057,태백동공영주차장,공영,노외,경상남도 창원시 진해구 경화동 1141-19,경상남도 창원시 진해구 경화동 1141-19,5,1,미시행,평일+토요일+공휴일,00:00,00:00,00:00,00:00,00:00,00:00,무료,0,0,,,,,,,,경상남도 창원시청,055-548-4434,35.15552200,128.67720600,2018-06-30
418-2-000052,태백동임시주차장,공영,노외,경상남도 창원시 진해구 경화동 1141-3 일원,경상남도 창원시 진해구 경화동 1141-3 일원,38,1,미시행,평일+토요일+공휴일,00:00,00:00,00:00,00:00,00:00,00:00,무료,0,0,,,,,,,,경상남도 창원시청,055-548-4434,35.15604400,128.67739700,2018-06-30
418-2-000056,태백임시주차장옆,공영,노외,경상남도 창원시 진해구 경화동 1142-20 일원,경상남도 창원시 진해구 경화동 1142-20 일원,13,1,미시행,평일+토요일+공휴일,00:00,00:00,00:00,00:00,00:00,00:00,무료,0,0,,,,,,,,경상남도 창원시청,055-548-4434,35.15638900,128.67851900,2018-06-30
418-2-000050,중초공영주차장,공영,노외,경상남도 창원시 진해구 경화동 1148-21,경상남도 창원시 진해구 경화동 1148-21,21,1,미시행,평일+토요일+공휴일,00:00,00:00,00:00,00:00,00:00,00:00,무료,0,0,,,,,,,,경상남도 창원시청,055-548-4434,35.15536000,128.68051900,2018-06-30
418-2-000062,중부시장 공영주차장,공영,노외,경상남도 창원시 진해구 경화동 1163-6,경상남도 창원시 진해구 경화동 1163-6,24,1,미시행,평일+토요일+공휴일,00:00,00:00,00:00,00:00,00:00,00:00,무료,0,0,,,,,,,,경상남도 창원시청,055-548-4434,35.15442900,128.68086300,2018-06-30
418-2-000080,경화동공영주차장,공영,노외,경상남도 창원시 진해구 경화동 1165-21,경상남도 창원시 진해구 경화동 1165-21,16,1,미시행,평일+토요일+공휴일,00:00,00:00,00:00,00:00,00:00,00:00,무료,0,0,,,,,,,,경상남도 창원시청,055-548-4434,35.15483200,128.68302800,2018-06-30
418-2-000079,경화동공영주차장,공영,노외,경상남도 창원시 진해구 경화동 1167-3,경상남도 창원시 진해구 경화동 1167-3,8,1,미시행,평일+토요일+공휴일,00:00,00:00,00:00,00:00,00:00,00:00,무료,0,0,,,,,,,,경상남도 창원시청,055-548-4434,35.15448300,128.68250900,2018-06-30
418-2-000053,태백로공영주차장,공영,노외,경상남도 창원시 진해구 경화동 1170-4 일원,경상남도 창원시 진해구 경화동 1170-4 일원,13,1,미시행,평일+토요일+공휴일,00:00,00:00,00:00,00:00,00:00,00:00,무료,0,0,,,,,,,,경상남도 창원시청,055-548-4434,35.15313300,128.67564900,2018-06-30
418-2-000061,태백동공영주차장(진양아파트옆),공영,노외,경상남도 창원시 진해구 경화동 1172-13,경상남도 창원시 진해구 경화동 1172-13,19,1,미시행,평일+토요일+공휴일,00:00,00:00,00:00,00:00,00:00,00:00,무료,0,0,,,,,,,,경상남도 창원시청,055-548-4434,35.15347100,128.67807800,2018-06-30
418-2-000069,경화역근처공영주차장,공영,노외,경상남도 창원시 진해구 경화동 1175-1,경상남도 창원시 진해구 경화동 1175-1,12,1,미시행,평일+토요일+공휴일,00:00,00:00,00:00,00:00,00:00,00:00,무료,0,0,,,,,,,,경상남도 창원시청,055-548-4434,35.15888700,128.68321600,2018-06-30
418-2-000067,경화공영주차장(동사무소옆),공영,노외,경상남도 창원시 진해구 경화동 134-1,경상남도 창원시 진해구 경화동 134-1,25,1,미시행,평일+토요일+공휴일,00:00,00:00,00:00,00:00,00:00,00:00,무료,0,0,,,,,,,,경상남도 창원시청,055-548-4434,35.15420700,128.68511900,2018-06-30
418-2-000081,삼정아파트뒤주차장,공영,노외,경상남도 창원시 진해구 경화동 1357-114,경상남도 창원시 진해구 경화동 1357-114,12,1,미시행,평일+토요일+공휴일,00:00,00:00,00:00,00:00,00:00,00:00,무료,0,0,,,,,,,,경상남도 창원시청,055-548-4434,35.16218500,128.68189300,2018-06-30
418-2-000082,삼정아파트뒤주차장,공영,노외,경상남도 창원시 진해구 경화동 1362-6,경상남도 창원시 진해구 경화동 1362-6,13,1,미시행,평일+토요일+공휴일,00:00,00:00,00:00,00:00,00:00,00:00,무료,0,0,,,,,,,,경상남도 창원시청,055-548-4434,35.16231100,128.68182800,2018-06-30
418-2-000051,중초복개천공영주차장,공영,노외,경상남도 창원시 진해구 경화동 1452,경상남도 창원시 진해구 경화동 1452,80,1,미시행,평일+토요일+공휴일,00:00,00:00,00:00,00:00,00:00,00:00,무료,0,0,,,,,,,,경상남도 창원시청,055-548-4434,35.15339200,128.67939400,2018-06-30
418-2-000071,경화동불종거리주차장(아침시장길),공영,노외,경상남도 창원시 진해구 경화동 1765-6,경상남도 창원시 진해구 경화동 1765-6,45,1,미시행,평일+토요일+공휴일,00:00,00:00,00:00,00:00,00:00,00:00,무료,0,0,,,,,,,,경상남도 창원시청,055-548-4434,35.15486300,128.68702400,2018-06-30
418-2-000070,경화동371번지 근처주차장(아침시장길),공영,노외,경상남도 창원시 진해구 경화동 1765-6,경상남도 창원시 진해구 경화동 1765-6,22,1,미시행,평일+토요일+공휴일,00:00,00:00,00:00,00:00,00:00,00:00,무료,0,0,,,,,,,,경상남도 창원시청,055-548-4434,35.15486300,128.68702400,2018-06-30
418-2-000093,경화동226번지 인근,공영,노외,경상남도 창원시 진해구 경화동 226,경상남도 창원시 진해구 경화동 226,24,1,미시행,평일+토요일+공휴일,00:00,00:00,00:00,00:00,00:00,00:00,무료,0,0,,,,,,,,경상남도 창원시청,055-548-4434,35.15465400,128.68899700,2018-06-30
418-2-000088,병암동사무소공영주차장,공영,노외,경상남도 창원시 진해구 경화동 242,경상남도 창원시 진해구 경화동 242,15,1,미시행,평일+토요일+공휴일,00:00,00:00,00:00,00:00,00:00,00:00,무료,0,0,,,,,,,,경상남도 창원시청,055-548-4434,35.15500200,128.68950500,2018-06-30
418-2-000073,경화동312번지 근처주차장(아침시장길),공영,노외,경상남도 창원시 진해구 경화동 312,경상남도 창원시 진해구 경화동 312,24,1,미시행,평일+토요일+공휴일,00:00,00:00,00:00,00:00,00:00,00:00,무료,0,0,,,,,,,,경상남도 창원시청,055-548-4434,35.15478300,128.68523400,2018-06-30
418-2-000085,병암동공영주차장(소망탕옆),공영,노외,경상남도 창원시 진해구 경화동 412 일원,경상남도 창원시 진해구 경화동 412 일원,10,1,미시행,평일+토요일+공휴일,00:00,00:00,00:00,00:00,00:00,00:00,무료,0,0,,,,,,,,경상남도 창원시청,055-548-4434,35.15525600,128.68918900,2018-06-30
418-2-000089,병암동공영주차장(소망탕옆-보수),공영,노외,경상남도 창원시 진해구 경화동 435,경상남도 창원시 진해구 경화동 435,6,1,미시행,평일+토요일+공휴일,00:00,00:00,00:00,00:00,00:00,00:00,무료,0,0,,,,,,,,경상남도 창원시청,055-548-4434,35.15539300,128.68888300,2018-06-30
418-2-000072,경화동606번지 근처주차장(아침시장길),공영,노외,경상남도 창원시 진해구 경화동 606번지,경상남도 창원시 진해구 경화동 606번지,23,1,미시행,평일+토요일+공휴일,00:00,00:00,00:00,00:00,00:00,00:00,무료,0,0,,,,,,,,경상남도 창원시청,055-548-4434,35.15618000,128.68679300,2018-06-30
418-2-000083,조천북로154번길 주차장,공영,노외,경상남도 창원시 진해구 경화동 836-38,경상남도 창원시 진해구 경화동 836-38,7,1,미시행,평일+토요일+공휴일,00:00,00:00,00:00,00:00,00:00,00:00,무료,0,0,,,,,,,,경상남도 창원시청,055-548-4434,35.16016900,128.68925300,2018-06-30
418-2-000077,진희로공영주차장(경화주공옆),공영,노외,경상남도 창원시 진해구 경화동 862-4,경상남도 창원시 진해구 경화동 862-4,34,1,미시행,평일+토요일+공휴일,00:00,00:00,00:00,00:00,00:00,00:00,무료,0,0,,,,,,,,경상남도 창원시청,055-548-4434,35.15840400,128.68737200,2018-06-30
418-2-000075,경화공영주차장(경화주공옆),공영,노외,경상남도 창원시 진해구 경화동 864-3 일원,경상남도 창원시 진해구 경화동 864-3 일원,55,1,미시행,평일+토요일+공휴일,00:00,00:00,00:00,00:00,00:00,00:00,무료,0,0,,,,,,,,경상남도 창원시청,055-548-4434,35.15812300,128.68765500,2018-06-30
418-2-000076,진희로공영주차장(경화주공옆),공영,노외,경상남도 창원시 진해구 경화동 864-8,경상남도 창원시 진해구 경화동 864-8,12,1,미시행,평일+토요일+공휴일,00:00,00:00,00:00,00:00,00:00,00:00,무료,0,0,,,,,,,,경상남도 창원시청,055-548-4434,35.15817900,128.68722700,2018-06-30
418-2-000086,병암동공영주차장,공영,노외,경상남도 창원시 진해구 경화동 930-2,경상남도 창원시 진해구 경화동 930-2,5,1,미시행,평일+토요일+공휴일,00:00,00:00,00:00,00:00,00:00,00:00,무료,0,0,,,,,,,,경상남도 창원시청,055-548-4434,35.15610600,128.68871300,2018-06-30
418-2-000090,병암동공영주차장(931-1),공영,노외,경상남도 창원시 진해구 경화동 931-1,경상남도 창원시 진해구 경화동 931-1,10,1,미시행,평일+토요일+공휴일,00:00,00:00,00:00,00:00,00:00,00:00,무료,0,0,,,,,,,,경상남도 창원시청,055-548-4434,35.15634900,128.68883600,2018-06-30
418-2-000087,병암동공영주차장,공영,노외,경상남도 창원시 진해구 경화동 940-2,경상남도 창원시 진해구 경화동 940-2,6,1,미시행,평일+토요일+공휴일,00:00,00:00,00:00,00:00,00:00,00:00,무료,0,0,,,,,,,,경상남도 창원시청,055-548-4434,35.15646100,128.68969300,2018-06-30
418-2-000092,경화시장공영주차장,공영,노외,경상남도 창원시 진해구 경화동 965-19,경상남도 창원시 진해구 경화동 965-19,86,1,미시행,평일+토요일+공휴일,00:00,00:00,00:00,00:00,00:00,00:00,무료,0,0,,,,,,,,경상남도 창원시청,055-548-4434,35.15419000,128.69130900,2018-06-30
418-2-000094,경화시장로공영주차장,공영,노외,경상남도 창원시 진해구 경화동 973-4,경상남도 창원시 진해구 경화동 973-4,43,1,미시행,평일+토요일+공휴일,00:00,00:00,00:00,00:00,00:00,00:00,무료,0,0,,,,,,,,경상남도 창원시청,055-548-4434,35.15397900,128.69035300,2018-06-30
418-2-000105,청룡사 계곡 주차장,공영,노외,경상남도 창원시 진해구 국방부,경상남도 창원시 진해구 국방부,17,1,미시행,평일+토요일+공휴일,00:00,00:00,00:00,00:00,00:00,00:00,무료,0,0,,,,,,,,경상남도 창원시청,055-548-4434,35.13320400,128.71018100,2018-06-30
418-2-000118,웅천동공영주차장,공영,노외,경상남도 창원시 진해구 남문동 853-34,경상남도 창원시 진해구 남문동 853-34,6,1,미시행,평일+토요일+공휴일,00:00,00:00,00:00,00:00,00:00,00:00,무료,0,0,,,,,,,,경상남도 창원시청,055-548-4434,35.10924900,128.74983600,2018-06-30
418-2-000119,웅천동공영주차장,공영,노외,경상남도 창원시 진해구 남문동 857-29 일원,경상남도 창원시 진해구 남문동 857-29 일원,7,1,미시행,평일+토요일+공휴일,00:00,00:00,00:00,00:00,00:00,00:00,무료,0,0,,,,,,,,경상남도 창원시청,055-548-4434,35.10989700,128.74991900,2018-06-30
418-2-000120,웅천동공영주차장,공영,노외,경상남도 창원시 진해구 남문동 876-39,경상남도 창원시 진해구 남문동 876-39,4,1,미시행,평일+토요일+공휴일,00:00,00:00,00:00,00:00,00:00,00:00,무료,0,0,,,,,,,,경상남도 창원시청,055-548-4434,35.10988000,128.74970000,2018-06-30
418-2-000131,대장동 공영주차장,공영,노외,경상남도 창원시 진해구 대장동  60-2,경상남도 창원시 진해구 대장동  60-2,12,1,미시행,평일+토요일+공휴일,00:00,00:00,00:00,00:00,00:00,00:00,무료,0,0,,,,,,,,경상남도 창원시청,055-548-4434,35.13910800,128.77919000,2018-06-30
418-2-000126,대장동계곡자연발생유원지,공영,노외,경상남도 창원시 진해구 대장동 177-1 일원,경상남도 창원시 진해구 대장동 177-1 일원,127,1,미시행,평일+토요일+공휴일,00:00,00:00,00:00,00:00,00:00,00:00,무료,0,0,,,,,,,,경상남도 창원시청,055-548-4434,35.14730300,128.78031100,2018-06-30
418-2-000003,태평동공영주차장,공영,노외,경상남도 창원시 진해구 대죽동 15-4  일원,경상남도 창원시 진해구 대죽동 15-4  일원,16,1,미시행,평일+토요일+공휴일,00:00,00:00,00:00,00:00,00:00,00:00,무료,0,0,,,,,,,,경상남도 창원시청,055-548-4434,35.14103000,128.67032600,2018-06-30
418-2-000002,태평동공영주차장(안곡길),공영,노외,경상남도 창원시 진해구 대죽동 15-64  일원,경상남도 창원시 진해구 대죽동 15-64  일원,13,1,미시행,평일+토요일+공휴일,00:00,00:00,00:00,00:00,00:00,00:00,무료,0,0,,,,,,,,경상남도 창원시청,055-548-4434,35.14025000,128.67115300,2018-06-30
418-2-000004,대죽동공영주차장,공영,노외,경상남도 창원시 진해구 대죽동 32-65,경상남도 창원시 진해구 대죽동 32-65,15,1,미시행,평일+토요일+공휴일,00:00,00:00,00:00,00:00,00:00,00:00,무료,0,0,,,,,,,,경상남도 창원시청,055-548-4434,35.14446200,128.66409900,2018-06-30
418-2-000130,웅동로51번길공영주차장,공영,노외,경상남도 창원시 진해구 마천동 129-5,경상남도 창원시 진해구 마천동 129-5,17,1,미시행,평일+토요일+공휴일,00:00,00:00,00:00,00:00,00:00,00:00,무료,0,0,,,,,,,,경상남도 창원시청,055-548-4434,35.12567900,128.78293500,2018-06-30
418-2-000129,웅동1동파출소,공영,노외,경상남도 창원시 진해구 마천동 134-5,경상남도 창원시 진해구 마천동 134-5,9,1,미시행,평일+토요일+공휴일,00:00,00:00,00:00,00:00,00:00,00:00,무료,0,0,,,,,,,,경상남도 창원시청,055-548-4434,35.12553900,128.78239600,2018-06-30
418-2-000127,웅동1동사무소,공영,노외,경상남도 창원시 진해구 마천동 139-2,경상남도 창원시 진해구 마천동 139-2,10,1,미시행,평일+토요일+공휴일,00:00,00:00,00:00,00:00,00:00,00:00,무료,0,0,,,,,,,,경상남도 창원시청,055-548-4434,35.12586100,128.78268500,2018-06-30
418-2-000128,웅동1동사무소 뒷편,공영,노외,경상남도 창원시 진해구 마천동 144-10,경상남도 창원시 진해구 마천동 144-10,16,1,미시행,평일+토요일+공휴일,00:00,00:00,00:00,00:00,00:00,00:00,무료,0,0,,,,,,,,경상남도 창원시청,055-548-4434,35.12610500,128.78265400,2018-06-30
418-2-000121,명동노외공영주차장,공영,노외,경상남도 창원시 진해구 명동 574 일원,경상남도 창원시 진해구 명동 574 일원,174,2,미시행,평일+토요일+공휴일,00:00,00:00,00:00,00:00,00:00,00:00,유료,30,500,10,200,,3000,30000,현금,,경상남도 창원시청,055-548-4434,35.09998500,128.71807500,2018-06-30
418-2-000124,해양공원주차장,공영,노외,경상남도 창원시 진해구 명동로 62,경상남도 창원시 진해구 명동로 62,252,1,미시행,평일+토요일+공휴일,00:00,00:00,00:00,00:00,00:00,00:00,무료,0,0,,,,,,,,경상남도 창원시청,055-548-4434,35.09212300,128.71983800,2018-06-30
418-2-000123,해양공원휴게소 주차장,공영,노외,경상남도 창원시 진해구 명동로 62,경상남도 창원시 진해구 명동로 62,24,1,미시행,평일+토요일+공휴일,00:00,00:00,00:00,00:00,00:00,00:00,무료,0,0,,,,,,,,경상남도 창원시청,055-548-4434,35.09212300,128.71983800,2018-06-30
418-2-000125,해양공원 야외주차장,공영,노외,경상남도 창원시 진해구 명동로 62,경상남도 창원시 진해구 명동로 62,45,1,미시행,평일+토요일+공휴일,00:00,00:00,00:00,00:00,00:00,00:00,무료,0,0,,,,,,,,경상남도 창원시청,055-548-4434,35.09212300,128.71983800,2018-06-30
418-2-000098,석동(이동)공영주차장,공영,노외,경상남도 창원시 진해구 석동 130-6,경상남도 창원시 진해구 석동 130-6,9,1,미시행,평일+토요일+공휴일,00:00,00:00,00:00,00:00,00:00,00:00,무료,0,0,,,,,,,,경상남도 창원시청,055-548-4434,35.15128200,128.70475100,2018-06-30
418-2-000097,석동 주민센터 옆,공영,노외,경상남도 창원시 진해구 석동 622-25,경상남도 창원시 진해구 석동 622-25,7,1,미시행,평일+토요일+공휴일,00:00,00:00,00:00,00:00,00:00,00:00,무료,0,0,,,,,,,,경상남도 창원시청,055-548-4434,35.15870900,128.70014000,2018-06-30
418-2-000095,국민체육센터주차장,공영,노외,경상남도 창원시 진해구 석동 657,경상남도 창원시 진해구 석동 657,63,1,미시행,평일+토요일+공휴일,00:00,00:00,00:00,00:00,00:00,00:00,무료,0,0,,,,,,,,경상남도 창원시청,055-548-4434,35.15548000,128.70670800,2018-06-30
418-2-000096,우림아파트 옆,공영,노외,경상남도 창원시 진해구 석동 670,경상남도 창원시 진해구 석동 670,23,1,미시행,평일+토요일+공휴일,00:00,00:00,00:00,00:00,00:00,00:00,무료,0,0,,,,,,,,경상남도 창원시청,055-548-4434,35.15837000,128.69494500,2018-06-30
418-2-000122,웅천동사무소옆주차장,공영,노외,경상남도 창원시 진해구 성내동 360,경상남도 창원시 진해구 성내동 360,23,1,미시행,평일+토요일+공휴일,00:00,00:00,00:00,00:00,00:00,00:00,무료,0,0,,,,,,,,경상남도 창원시청,055-548-4434,35.11091700,128.74973100,2018-06-30
418-2-000014,중앙시장 공영주차장(추가신설),공영,노외,경상남도 창원시 진해구 송학동 52-47,경상남도 창원시 진해구 송학동 52-47,52,1,미시행,평일+토요일+공휴일,00:00,00:00,00:00,00:00,00:00,00:00,무료,0,0,,,,,,,,경상남도 창원시청,055-548-4434,35.15051300,128.66536600,2018-06-30
418-2-000013,중앙시장공영주차장,공영,노외,경상남도 창원시 진해구 송학동 52-47,경상남도 창원시 진해구 송학동 52-47,84,1,미시행,평일+토요일+공휴일,00:00,00:00,00:00,00:00,00:00,00:00,무료,0,0,,,,,,,,경상남도 창원시청,055-548-4434,35.15051300,128.66536600,2018-06-30
418-2-000028,여명4길공영주차장,공영,노외,경상남도 창원시 진해구 여좌동 107-5,경상남도 창원시 진해구 여좌동 107-5,8,1,미시행,평일+토요일+공휴일,00:00,00:00,00:00,00:00,00:00,00:00,무료,0,0,,,,,,,,경상남도 창원시청,055-548-4434,35.15788000,128.65837900,2018-06-30
418-2-000017,여좌공영주차장(여좌4통),공영,노외,경상남도 창원시 진해구 여좌동 111-21,경상남도 창원시 진해구 여좌동 111-21,5,1,미시행,평일+토요일+공휴일,00:00,00:00,00:00,00:00,00:00,00:00,무료,0,0,,,,,,,,경상남도 창원시청,055-548-4434,35.15695400,128.66288300,2018-06-30
418-2-000024,여좌5통공영주차장,공영,노외,경상남도 창원시 진해구 여좌동 113-9 일원,경상남도 창원시 진해구 여좌동 113-9 일원,16,1,미시행,평일+토요일+공휴일,00:00,00:00,00:00,00:00,00:00,00:00,무료,0,0,,,,,,,,경상남도 창원시청,055-548-4434,35.15697200,128.66455100,2018-06-30
418-2-000029,헌녀공영주차장,공영,노외,경상남도 창원시 진해구 여좌동 120-37,경상남도 창원시 진해구 여좌동 120-37,6,1,미시행,평일+토요일+공휴일,00:00,00:00,00:00,00:00,00:00,00:00,무료,0,0,,,,,,,,경상남도 창원시청,055-548-4434,35.15603500,128.66109700,2018-06-30
418-2-000019,여좌공영주차장(여좌농협길),공영,노외,경상남도 창원시 진해구 여좌동 126-30,경상남도 창원시 진해구 여좌동 126-30,16,1,미시행,평일+토요일+공휴일,00:00,00:00,00:00,00:00,00:00,00:00,무료,0,0,,,,,,,,경상남도 창원시청,055-548-4434,35.15513600,128.66072800,2018-06-30
418-2-000023,여좌공영주차장(삼원맨션근처),공영,노외,경상남도 창원시 진해구 여좌동 128-21,경상남도 창원시 진해구 여좌동 128-21,5,1,미시행,평일+토요일+공휴일,00:00,00:00,00:00,00:00,00:00,00:00,무료,0,0,,,,,,,,경상남도 창원시청,055-548-4434,35.15540500,128.66259600,2018-06-30
418-2-000038,여좌동,공영,노외,경상남도 창원시 진해구 여좌동 43-42,경상남도 창원시 진해구 여좌동 43-42,16,1,미시행,평일+토요일+공휴일,00:00,00:00,00:00,00:00,00:00,00:00,무료,0,0,,,,,,,,경상남도 창원시청,055-548-4434,35.16092100,128.66259700,2018-06-30
418-2-000016,"여좌공영주차장(설령대길,한전근처)",공영,노외,경상남도 창원시 진해구 여좌동 6-23,경상남도 창원시 진해구 여좌동 6-23,7,1,미시행,평일+토요일+공휴일,00:00,00:00,00:00,00:00,00:00,00:00,무료,0,0,,,,,,,,경상남도 창원시청,055-548-4434,35.16177100,128.66058400,2018-06-30
418-2-000026,여좌공영주차장(침례교회근처),공영,노외,경상남도 창원시 진해구 여좌동 761-117,경상남도 창원시 진해구 여좌동 761-117,5,1,미시행,평일+토요일+공휴일,00:00,00:00,00:00,00:00,00:00,00:00,무료,0,0,,,,,,,,경상남도 창원시청,055-548-4434,35.15370100,128.66421800,2018-06-30
418-2-000025,여좌공영주차장(침례교회근처-보수),공영,노외,경상남도 창원시 진해구 여좌동 761-140 일원,경상남도 창원시 진해구 여좌동 761-140 일원,5,1,미시행,평일+토요일+공휴일,00:00,00:00,00:00,00:00,00:00,00:00,무료,0,0,,,,,,,,경상남도 창원시청,055-548-4434,35.15376900,128.66340600,2018-06-30
418-2-000030,여좌공영주차장(진해여고근처),공영,노외,경상남도 창원시 진해구 여좌동 761-215 일원,경상남도 창원시 진해구 여좌동 761-215 일원,14,1,미시행,평일+토요일+공휴일,00:00,00:00,00:00,00:00,00:00,00:00,무료,0,0,,,,,,,,경상남도 창원시청,055-548-4434,35.15414200,128.65950200,2018-06-30
418-2-000027,여좌공영주차장(침례교회근처),공영,노외,경상남도 창원시 진해구 여좌동 761-71,경상남도 창원시 진해구 여좌동 761-71,9,1,미시행,평일+토요일+공휴일,00:00,00:00,00:00,00:00,00:00,00:00,무료,0,0,,,,,,,,경상남도 창원시청,055-548-4434,35.15391400,128.66477900,2018-06-30
418-2-000037,여좌동,공영,노외,경상남도 창원시 진해구 여좌동 8-1,경상남도 창원시 진해구 여좌동 8-1,9,1,미시행,평일+토요일+공휴일,00:00,00:00,00:00,00:00,00:00,00:00,무료,0,0,,,,,,,,경상남도 창원시청,055-548-4434,35.16298200,128.66169100,2018-06-30
418-2-000034,여좌동공영주차장,공영,노외,경상남도 창원시 진해구 여좌동 8-18,경상남도 창원시 진해구 여좌동 8-18,9,1,미시행,평일+토요일+공휴일,00:00,00:00,00:00,00:00,00:00,00:00,무료,0,0,,,,,,,,경상남도 창원시청,055-548-4434,35.16210800,128.66164000,2018-06-30
418-2-000064,태백동공영주차장,공영,노외,경상남도 창원시 진해구 여좌동 828-2,경상남도 창원시 진해구 여좌동 828-2,7,1,미시행,평일+토요일+공휴일,00:00,00:00,00:00,00:00,00:00,00:00,무료,0,0,,,,,,,,경상남도 창원시청,055-548-4434,35.15275700,128.67369300,2018-06-30
418-2-000042,성광교회옆공영주차장,공영,노외,경상남도 창원시 진해구 여좌동 833-1 일원,경상남도 창원시 진해구 여좌동 833-1 일원,16,1,미시행,평일+토요일+공휴일,00:00,00:00,00:00,00:00,00:00,00:00,무료,0,0,,,,,,,,경상남도 창원시청,055-548-4434,35.15351200,128.67397300,2018-06-30
418-2-000044,태백공영주차장(중앙초교입구),공영,노외,경상남도 창원시 진해구 여좌동 836-13,경상남도 창원시 진해구 여좌동 836-13,7,1,미시행,평일+토요일+공휴일,00:00,00:00,00:00,00:00,00:00,00:00,무료,0,0,,,,,,,,경상남도 창원시청,055-548-4434,35.15276800,128.67485600,2018-06-30
418-2-000043,태백이발소옆공영주차장,공영,노외,경상남도 창원시 진해구 여좌동 836-5 일원,경상남도 창원시 진해구 여좌동 836-5 일원,8,1,미시행,평일+토요일+공휴일,00:00,00:00,00:00,00:00,00:00,00:00,무료,0,0,,,,,,,,경상남도 창원시청,055-548-4434,35.15314900,128.67448600,2018-06-30
418-2-000045,태백15통공영주차장 (도로),공영,노외,경상남도 창원시 진해구 여좌동 853-6 일원,경상남도 창원시 진해구 여좌동 853-6 일원,20,1,미시행,평일+토요일+공휴일,00:00,00:00,00:00,00:00,00:00,00:00,무료,0,0,,,,,,,,경상남도 창원시청,055-548-4434,35.15398900,128.66919200,2018-06-30
418-2-000041,태백동금화아파트입구,공영,노외,경상남도 창원시 진해구 여좌동 925-55 일원,경상남도 창원시 진해구 여좌동 925-55 일원,50,1,미시행,평일+토요일+공휴일,00:00,00:00,00:00,00:00,00:00,00:00,무료,0,0,,,,,,,,경상남도 창원시청,055-548-4434,35.15382500,128.67123200,2018-06-30
418-2-000021,여좌복개천공영주차장,공영,노외,경상남도 창원시 진해구 여좌동 930-2,경상남도 창원시 진해구 여좌동 930-2,40,1,미시행,평일+토요일+공휴일,00:00,00:00,00:00,00:00,00:00,00:00,무료,0,0,,,,,,,,경상남도 창원시청,055-548-4434,35.15363000,128.65917900,2018-06-30
418-2-000020,여좌공영주차장(이송빌라트옆),공영,노외,경상남도 창원시 진해구 여좌동 97 일원,경상남도 창원시 진해구 여좌동 97 일원,25,1,미시행,평일+토요일+공휴일,00:00,00:00,00:00,00:00,00:00,00:00,무료,0,0,,,,,,,,경상남도 창원시청,055-548-4434,35.15856300,128.66040400,2018-06-30
418-2-000018,대야공영주차장(여좌2가동),공영,노외,경상남도 창원시 진해구 여좌동 99-23일원,경상남도 창원시 진해구 여좌동 99-23일원,10,1,미시행,평일+토요일+공휴일,00:00,00:00,00:00,00:00,00:00,00:00,무료,0,0,,,,,,,,경상남도 창원시청,055-548-4434,35.15816900,128.66321100,2018-06-30
418-2-000036,여좌동삼원맨션옆,공영,노외,경상남도 창원시 진해구 여좌동122-35,경상남도 창원시 진해구 여좌동122-35,10,1,미시행,평일+토요일+공휴일,00:00,00:00,00:00,00:00,00:00,00:00,무료,0,0,,,,,,,,경상남도 창원시청,055-548-4434,35.15590000,128.66263300,2018-06-30
418-2-000032,평지마을임시주차장,공영,노외,경상남도 창원시 진해구 여좌천로 158-32 일원,경상남도 창원시 진해구 여좌천로 158-32 일원,18,1,미시행,평일+토요일+공휴일,00:00,00:00,00:00,00:00,00:00,00:00,무료,0,0,,,,,,,,경상남도 창원시청,055-548-4434,35.16637200,128.65819500,2018-06-30
418-2-000133,용원수협뒤공영주차장,공영,노외,경상남도 창원시 진해구 용원동 1067,경상남도 창원시 진해구 용원동 1067,21,1,미시행,평일+토요일+공휴일,00:00,00:00,00:00,00:00,00:00,00:00,무료,0,0,,,,,,,,경상남도 창원시청,055-548-4434,35.09241800,128.81828300,2018-06-30
418-2-000132,용원수협옆공영주차장,공영,노외,경상남도 창원시 진해구 용원동 1111-19,경상남도 창원시 진해구 용원동 1111-19,50,1,미시행,평일+토요일+공휴일,00:00,00:00,00:00,00:00,00:00,00:00,무료,0,0,,,,,,,,경상남도 창원시청,055-548-4434,35.09124200,128.81495900,2018-06-30
418-2-000134,웅동2동사무소앞임시주차장,공영,노외,경상남도 창원시 진해구 용원동 1219-1일원,경상남도 창원시 진해구 용원동 1219-1일원,116,1,미시행,평일+토요일+공휴일,00:00,00:00,00:00,00:00,00:00,00:00,무료,0,0,,,,,,,,경상남도 창원시청,055-548-4434,35.10029700,128.81421500,2018-06-30
418-2-000135,용원교회옆공영주차장,공영,노외,경상남도 창원시 진해구 용원동 1246,경상남도 창원시 진해구 용원동 1246,33,1,미시행,평일+토요일+공휴일,00:00,00:00,00:00,00:00,00:00,00:00,무료,0,0,,,,,,,,경상남도 창원시청,055-548-4434,35.09554400,128.81861000,2018-06-30
418-2-000139,용원복지회관 옆,공영,노외,경상남도 창원시 진해구 용원동 1271-1,경상남도 창원시 진해구 용원동 1271-1,30,1,미시행,평일+토요일+공휴일,00:00,00:00,00:00,00:00,00:00,00:00,무료,0,0,,,,,,,,경상남도 창원시청,055-548-4434,35.09903400,128.81162500,2018-06-30
418-2-000137,용원검문소 근처,공영,노외,경상남도 창원시 진해구 용원동 4-5,경상남도 창원시 진해구 용원동 4-5,8,1,미시행,평일+토요일+공휴일,00:00,00:00,00:00,00:00,00:00,00:00,무료,0,0,,,,,,,,경상남도 창원시청,055-548-4434,35.10246100,128.83263100,2018-06-30
418-2-000113,합포마을공영주차장,공영,노외,경상남도 창원시 진해구 원포동 591-1,경상남도 창원시 진해구 원포동 591-1,19,1,미시행,평일+토요일+공휴일,00:00,00:00,00:00,00:00,00:00,00:00,무료,0,0,,,,,,,,경상남도 창원시청,055-548-4434,35.10089500,128.69643100,2018-06-30
418-2-000101,이동로54번길공영주차장,공영,노외,경상남도 창원시 진해구 이동 161-16,경상남도 창원시 진해구 이동 161-16,27,1,미시행,평일+토요일+공휴일,00:00,00:00,00:00,00:00,00:00,00:00,무료,0,0,,,,,,,,경상남도 창원시청,055-548-4434,35.15081000,128.69757000,2018-06-30
418-2-000091,병암동공영주차장(한림아파트옆),공영,노외,경상남도 창원시 진해구 이동 505-3,경상남도 창원시 진해구 이동 505-3,10,1,미시행,평일+토요일+공휴일,00:00,00:00,00:00,00:00,00:00,00:00,무료,0,0,,,,,,,,경상남도 창원시청,055-548-4434,35.15763600,128.69389600,2018-06-30
418-2-000084,이동체육공원옆주차장,공영,노외,경상남도 창원시 진해구 이동 552-4,경상남도 창원시 진해구 이동 552-4,10,1,미시행,평일+토요일+공휴일,00:00,00:00,00:00,00:00,00:00,00:00,무료,0,0,,,,,,,,경상남도 창원시청,055-548-4434,35.15139000,128.69060500,2018-06-30
418-2-000100,이동우체국옆공영주차장,공영,노외,경상남도 창원시 진해구 이동 611-16,경상남도 창원시 진해구 이동 611-16,17,1,미시행,평일+토요일+공휴일,00:00,00:00,00:00,00:00,00:00,00:00,무료,0,0,,,,,,,,경상남도 창원시청,055-548-4434,35.14997400,128.69714500,2018-06-30
418-2-000099,이동사무소공영주차장,공영,노외,경상남도 창원시 진해구 이동 62-18,경상남도 창원시 진해구 이동 62-18,8,1,미시행,평일+토요일+공휴일,00:00,00:00,00:00,00:00,00:00,00:00,무료,0,0,,,,,,,,경상남도 창원시청,055-548-4434,35.14919100,128.69999200,2018-06-30
418-2-000102,이동택지사거리공영주차장,공영,노외,경상남도 창원시 진해구 이동250-4,경상남도 창원시 진해구 이동250-4,16,1,미시행,평일+토요일+공휴일,00:00,00:00,00:00,00:00,00:00,00:00,무료,0,0,,,,,,,,경상남도 창원시청,055-548-4434,35.13320400,128.71018100,2018-06-30
418-2-000010,충무동공영주차장 옆,공영,노외,경상남도 창원시 진해구 인사동 1-23,경상남도 창원시 진해구 인사동 1-23,1,1,미시행,평일+토요일+공휴일,00:00,00:00,00:00,00:00,00:00,00:00,무료,0,0,,,,,,,,경상남도 창원시청,055-548-4434,35.14968900,128.66597400,2018-06-30
418-2-000009,충무동공영주차장 옆,공영,노외,경상남도 창원시 진해구 인사동 1-7,경상남도 창원시 진해구 인사동 1-7,3,1,미시행,평일+토요일+공휴일,00:00,00:00,00:00,00:00,00:00,00:00,무료,0,0,,,,,,,,경상남도 창원시청,055-548-4434,35.14966200,128.66606100,2018-06-30
418-2-000011,충무동공영주차장,공영,노외,경상남도 창원시 진해구 인사동 2-1,경상남도 창원시 진해구 인사동 2-1,41,1,미시행,평일+토요일+공휴일,08:00,00:00,08:00,00:00,08:00,00:00,유료,30,500,10,200,,6000,60000,현금,,경상남도 창원시청,055-548-4434,35.14965900,128.66647900,2018-06-30
418-2-000008,동백골목근처(해병전우회사무실근처),공영,노외,경상남도 창원시 진해구 인사동 9-6,경상남도 창원시 진해구 인사동 9-6,3,1,미시행,평일+토요일+공휴일,00:00,00:00,00:00,00:00,00:00,00:00,무료,0,0,,,,,,,,경상남도 창원시청,055-548-4434,35.14969500,128.66822400,2018-06-30
418-2-000106,자은동공영주차장(엘지주유소뒷편),공영,노외,경상남도 창원시 진해구 자은동 844-3 일대,경상남도 창원시 진해구 자은동 844-3 일대,48,1,미시행,평일+토요일+공휴일,00:00,00:00,00:00,00:00,00:00,00:00,무료,0,0,,,,,,,,경상남도 창원시청,055-548-4434,35.14659200,128.70676300,2018-06-30
418-2-000103,자은동사무소옆공영주차장,공영,노외,경상남도 창원시 진해구 자은동 866-27,경상남도 창원시 진해구 자은동 866-27,6,1,미시행,평일+토요일+공휴일,00:00,00:00,00:00,00:00,00:00,00:00,무료,0,0,,,,,,,,경상남도 창원시청,055-548-4434,35.14680700,128.70540400,2018-06-30
418-2-000104,자은동공영주차장(벚꽃양조장근처),공영,노외,경상남도 창원시 진해구 자은동 880-10 일원,경상남도 창원시 진해구 자은동 880-10 일원,8,1,미시행,평일+토요일+공휴일,00:00,00:00,00:00,00:00,00:00,00:00,무료,0,0,,,,,,,,경상남도 창원시청,055-548-4434,35.14780200,128.70319600,2018-06-30
418-2-000107,자은동공영주차장,공영,노외,경상남도 창원시 진해구 자은동 936-5,경상남도 창원시 진해구 자은동 936-5,22,1,미시행,평일+토요일+공휴일,00:00,00:00,00:00,00:00,00:00,00:00,무료,0,0,,,,,,,,경상남도 창원시청,055-548-4434,35.14845200,128.70772300,2018-06-30
418-2-000108,자은동 공영주차장,공영,노외,경상남도 창원시 진해구 자은동 952-16,경상남도 창원시 진해구 자은동 952-16,4,1,미시행,평일+토요일+공휴일,00:00,00:00,00:00,00:00,00:00,00:00,무료,0,0,,,,,,,,경상남도 창원시청,055-548-4434,35.14828000,128.70932400,2018-06-30
418-2-000114,장천대동아파트공영주차장,공영,노외,경상남도 창원시 진해구 장천동 119-34,경상남도 창원시 진해구 장천동 119-34,30,1,미시행,평일+토요일+공휴일,00:00,00:00,00:00,00:00,00:00,00:00,무료,0,0,,,,,,,,경상남도 창원시청,055-548-4434,35.12668300,128.70763400,2018-06-30
418-2-000112,장천시영화장장입구주차장,공영,노외,경상남도 창원시 진해구 장천동 150-1,경상남도 창원시 진해구 장천동 150-1,25,1,미시행,평일+토요일+공휴일,00:00,00:00,00:00,00:00,00:00,00:00,무료,0,0,,,,,,,,경상남도 창원시청,055-548-4434,35.12725800,128.71111700,2018-06-30
418-2-000005,속천해안로공영주차장,공영,노외,경상남도 창원시 진해구 제황산동 24-65,경상남도 창원시 진해구 제황산동 24-65,91,1,미시행,평일+토요일+공휴일,00:00,00:00,00:00,00:00,00:00,00:00,무료,0,0,,,,,,,,경상남도 창원시청,055-548-4434,35.14463000,128.67294500,2018-06-30
418-2-000035,진해역철도화물홈,공영,노외,경상남도 창원시 진해구 진해역,경상남도 창원시 진해구 진해역,42,1,미시행,평일+토요일+공휴일,00:00,00:00,00:00,00:00,00:00,00:00,무료,0,0,,,,,,,,경상남도 창원시청,055-548-4434,35.13320400,128.71018100,2018-06-30
418-2-000078,진해루공영주차장,공영,노외,경상남도 창원시 진해구 진희로 150,경상남도 창원시 진해구 진희로 150,64,1,미시행,평일+토요일+공휴일,00:00,00:00,00:00,00:00,00:00,00:00,무료,0,0,,,,,,,,경상남도 창원시청,055-548-4434,35.14717700,128.68491800,2018-06-30
418-2-000138,용원주민운동장 옆,공영,노외,경상남도 창원시 진해구 청안동 308-2,경상남도 창원시 진해구 청안동 308-2,32,1,미시행,평일+토요일+공휴일,00:00,00:00,00:00,00:00,00:00,00:00,무료,0,0,,,,,,,,경상남도 창원시청,055-548-4434,35.10582100,128.80222600,2018-06-30
418-2-000012,충무동공영주차장,공영,노외,경상남도 창원시 진해구 충무동 11-3,경상남도 창원시 진해구 충무동 11-3,10,1,미시행,평일+토요일+공휴일,00:00,00:00,00:00,00:00,00:00,00:00,무료,0,0,,,,,,,,경상남도 창원시청,055-548-4434,35.15215000,128.66105500,2018-06-30
418-2-000006,동백골목공영주차장,공영,노외,경상남도 창원시 진해구 충무동 25-53,경상남도 창원시 진해구 충무동 25-53,11,1,미시행,평일+토요일+공휴일,00:00,00:00,00:00,00:00,00:00,00:00,무료,0,0,,,,,,,,경상남도 창원시청,055-548-4434,35.15156100,128.66663700,2018-06-30
418-2-000007,충무동공영주차장(복음병원),공영,노외,경상남도 창원시 진해구 충무동 28-13,경상남도 창원시 진해구 충무동 28-13,7,1,미시행,평일+토요일+공휴일,00:00,00:00,00:00,00:00,00:00,00:00,무료,0,0,,,,,,,,경상남도 창원시청,055-548-4434,35.15170000,128.66921700,2018-06-30
418-2-000015,충무동공영주차장,공영,노외,경상남도 창원시 진해구 충무동 30-5,경상남도 창원시 진해구 충무동 30-5,6,1,미시행,평일+토요일+공휴일,00:00,00:00,00:00,00:00,00:00,00:00,무료,0,0,,,,,,,,경상남도 창원시청,055-548-4434,35.15128500,128.67086000,2018-06-30
418-2-000033,중앙로공영주차장,공영,노외,경상남도 창원시 진해구 충무동 7-29 일원,경상남도 창원시 진해구 충무동 7-29 일원,30,1,미시행,평일+토요일+공휴일,00:00,00:00,00:00,00:00,00:00,00:00,유료,30,500,10,200,,6000,60000,현금,,경상남도 창원시청,055-548-4434,35.15263000,128.66228800,2018-06-30
418-2-000074,경화동경일빌라 근처주차장(아침시장길),공영,노외,경상남도 창원시 진해구 충장로305번길 28,경상남도 창원시 진해구 충장로305번길 28,22,1,미시행,평일+토요일+공휴일,00:00,00:00,00:00,00:00,00:00,00:00,무료,0,0,,,,,,,,경상남도 창원시청,055-548-4434,35.15594400,128.68555100,2018-06-30
418-2-000054,바가지샘공영주차장,공영,노외,경상남도 창원시 진해구 태백동 12-11,경상남도 창원시 진해구 태백동 12-11,15,1,미시행,평일+토요일+공휴일,00:00,00:00,00:00,00:00,00:00,00:00,무료,0,0,,,,,,,,경상남도 창원시청,055-548-4434,35.15712000,128.67032600,2018-06-30
418-2-000031,여좌공영주차장(진해중근처),공영,노외,경상남도 창원시 진해구 태백동 24-4,경상남도 창원시 진해구 태백동 24-4,10,1,미시행,평일+토요일+공휴일,00:00,00:00,00:00,00:00,00:00,00:00,무료,0,0,,,,,,,,경상남도 창원시청,055-548-4434,35.15965700,128.66634100,2018-06-30
418-2-000065,태백동 임시공영주차장,공영,노외,경상남도 창원시 진해구 태백동 3-2,경상남도 창원시 진해구 태백동 3-2,27,1,미시행,평일+토요일+공휴일,00:00,00:00,00:00,00:00,00:00,00:00,무료,0,0,,,,,,,,경상남도 창원시청,055-548-4434,35.15556900,128.67369400,2018-06-30
418-2-000046,태백동고가다리아래,공영,노외,경상남도 창원시 진해구 태백동 4-100 일원,경상남도 창원시 진해구 태백동 4-100 일원,58,1,미시행,평일+토요일+공휴일,00:00,00:00,00:00,00:00,00:00,00:00,무료,0,0,,,,,,,,경상남도 창원시청,055-548-4434,35.15613500,128.67395100,2018-06-30
418-2-000047,안민고갯길공영주차장(격리병사),공영,노외,경상남도 창원시 진해구 태백동 4-24,경상남도 창원시 진해구 태백동 4-24,32,1,미시행,평일+토요일+공휴일,00:00,00:00,00:00,00:00,00:00,00:00,무료,0,0,,,,,,,,경상남도 창원시청,055-548-4434,35.15739300,128.67470800,2018-06-30
418-2-000058,태백동스포츠파크,공영,노외,경상남도 창원시 진해구 태백동 4-41,경상남도 창원시 진해구 태백동 4-41,20,1,미시행,평일+토요일+공휴일,00:00,00:00,00:00,00:00,00:00,00:00,무료,0,0,,,,,,,,경상남도 창원시청,055-548-4434,35.15768700,128.67368900,2018-06-30
418-2-000040,여좌동 평지마을,공영,노외,경상남도 창원시 진해구 태백동 68-6,경상남도 창원시 진해구 태백동 68-6,16,1,미시행,평일+토요일+공휴일,00:00,00:00,00:00,00:00,00:00,00:00,무료,0,0,,,,,,,,경상남도 창원시청,055-548-4434,35.16780300,128.65699900,2018-06-30
418-2-000039,파크랜드 옆 주차장,공영,노외,경상남도 창원시 진해구 태백동 70일대,경상남도 창원시 진해구 태백동 70일대,73,1,미시행,평일+토요일+공휴일,00:00,00:00,00:00,00:00,00:00,00:00,무료,0,0,,,,,,,,경상남도 창원시청,055-548-4434,35.16836600,128.65625700,2018-06-30
418-2-000060,시민회관주차장,공영,노외,경상남도 창원시 진해구 태백동 산55 인근,경상남도 창원시 진해구 태백동 산55 인근,119,1,미시행,평일+토요일+공휴일,00:00,00:00,00:00,00:00,00:00,00:00,무료,0,0,,,,,,,,경상남도 창원시청,055-548-4434,35.16777000,128.66461700,2018-06-30
418-2-000049,대광사옆 주차장(대광사),공영,노외,경상남도 창원시 진해구 태백동 산84-15,경상남도 창원시 진해구 태백동 산84-15,23,1,미시행,평일+토요일+공휴일,00:00,00:00,00:00,00:00,00:00,00:00,무료,0,0,,,,,,,,경상남도 창원시청,055-548-4434,35.17090000,128.65773800,2018-06-30
418-2-000048,장복공원공영주차장(대광사입구),공영,노외,경상남도 창원시 진해구 태백동 산98-1,경상남도 창원시 진해구 태백동 산98-1,21,1,미시행,평일+토요일+공휴일,00:00,00:00,00:00,00:00,00:00,00:00,무료,0,0,,,,,,,,경상남도 창원시청,055-548-4434,35.17045700,128.65787700,2018-06-30
418-2-000116,풍호공원주차장,공영,노외,경상남도 창원시 진해구 풍호동 1,경상남도 창원시 진해구 풍호동 1,245,1,미시행,평일+토요일+공휴일,00:00,00:00,00:00,00:00,00:00,00:00,무료,0,0,,,,,,,,경상남도 창원시청,055-548-4434,35.13361700,128.71037100,2018-06-30
418-2-000115,시청 주차장,공영,노외,경상남도 창원시 진해구 풍호동 1,경상남도 창원시 진해구 풍호동 1,511,1,미시행,평일+토요일+공휴일,00:00,00:00,00:00,00:00,00:00,00:00,무료,0,0,,,,,,,,경상남도 창원시청,055-548-4434,35.13361700,128.71037100,2018-06-30
418-2-000111,풍호동사무소주차장,공영,노외,경상남도 창원시 진해구 풍호동 176-6,경상남도 창원시 진해구 풍호동 176-6,6,1,미시행,평일+토요일+공휴일,00:00,00:00,00:00,00:00,00:00,00:00,무료,0,0,,,,,,,,경상남도 창원시청,055-548-4434,35.13751100,128.70732100,2018-06-30
418-2-000117,풍호동 공영주차장,공영,노외,경상남도 창원시 진해구 풍호동 305-26 일원,경상남도 창원시 진해구 풍호동 305-26 일원,126,1,미시행,평일+토요일+공휴일,00:00,00:00,00:00,00:00,00:00,00:00,무료,0,0,,,,,,,,경상남도 창원시청,055-548-4434,35.13246600,128.70374400,2018-06-30
418-2-000110,풍산상가근처주차장,공영,노외,경상남도 창원시 진해구 풍호동 722-26,경상남도 창원시 진해구 풍호동 722-26,25,1,미시행,평일+토요일+공휴일,00:00,00:00,00:00,00:00,00:00,00:00,무료,0,0,,,,,,,,경상남도 창원시청,055-548-4434,35.14028200,128.70203400,2018-06-30
418-2-000109,덕산동사무소공영주차장,공영,노외,경상남도 창원시 진해구 풍호동 764-1,경상남도 창원시 진해구 풍호동 764-1,22,1,미시행,평일+토요일+공휴일,00:00,00:00,00:00,00:00,00:00,00:00,무료,0,0,,,,,,,,경상남도 창원시청,055-548-4434,35.14334800,128.70350900,2018-06-30
418-2-000022,여좌복개천공영주차장(해군사령부근처),공영,노외,경상남도 창원시 진해구 해군교육사령부,경상남도 창원시 진해구 해군교육사령부,100,1,미시행,평일+토요일+공휴일,00:00,00:00,00:00,00:00,00:00,00:00,무료,0,0,,,,,,,,경상남도 창원시청,055-548-4434,35.13320400,128.71018100,2018-06-30
418-2-000001,향군회관옆 공영주차장,공영,노외,경상남도 창원시 진해구 회현동 8-1,경상남도 창원시 진해구 회현동 8-1,8,1,미시행,평일+토요일+공휴일,00:00,00:00,00:00,00:00,00:00,00:00,무료,0,0,,,,,,,,경상남도 창원시청,055-548-4434,35.14987400,128.65697600,2018-06-30
416-2-000035,서원곡공영주차장,공영,노외,경상남도 창원시 마산합포구 서원곡1길 14,"경상남도 창원시 마산합포구 교방동 231,232,235,498,499-86",37,1,미시행,평일+토요일+공휴일,00:00,00:00,00:00,00:00,00:00,00:00,무료,0,0,,,,,,,,경상남도 창원시청,055-220-4436,35.21554900,128.56052700,2018-06-30
416-2-000037,저도비치로드공영주차장,공영,노외,"경상남도 창원시 마산합포구 구산면 구복리 326-4, 326-1","경상남도 창원시 마산합포구 구산면 구복리 326-4, 326-1",61,2,미시행,평일+토요일+공휴일,00:00,00:00,00:00,00:00,00:00,00:00,무료,0,0,,,,,,,,경상남도 창원시청,055-220-4436,35.05871200,128.56190900,2018-06-30
416-2-000013,저도연륙교제2공영주차장,공영,노외,경상남도 창원시 마산합포구 구산면 구복리 산 168,경상남도 창원시 마산합포구 구산면 구복리 산 168,23,2,미시행,평일+토요일+공휴일,00:00,00:00,00:00,00:00,00:00,00:00,무료,0,0,,,,,,,,경상남도 창원시청,055-220-4436,35.06482700,128.56122700,2018-06-30
416-2-000012,저도연륙교제1공영주차장,공영,노외,경상남도 창원시 마산합포구 구산면 구복리 산186-1,경상남도 창원시 마산합포구 구산면 구복리 산186-1,28,2,미시행,평일+토요일+공휴일,00:00,00:00,00:00,00:00,00:00,00:00,무료,0,0,,,,,,,,경상남도 창원시청,055-220-4436,35.06855200,128.56283200,2018-06-30
416-2-000020,내포마을(아래)공영주차장,공영,노외,경상남도 창원시 마산합포구 구산면 내포리 206-1,경상남도 창원시 마산합포구 구산면 내포리 206-1,13,2,미시행,평일+토요일+공휴일,00:00,00:00,00:00,00:00,00:00,00:00,무료,0,0,,,,,,,,경상남도 창원시청,055-220-4436,35.09629000,128.58160200,2018-06-30
416-2-000019,내포마을(윗)공영주차장,공영,노외,경상남도 창원시 마산합포구 구산면 내포리 603,경상남도 창원시 마산합포구 구산면 내포리 603,31,2,미시행,평일+토요일+공휴일,00:00,00:00,00:00,00:00,00:00,00:00,무료,0,0,,,,,,,,경상남도 창원시청,055-220-4436,35.09964000,128.57664600,2018-06-30
416-2-000017,상마전마을공영주차장,공영,노외,경상남도 창원시 마산합포구 구산면 마전리 340-1,경상남도 창원시 마산합포구 구산면 마전리 340-1,13,2,미시행,평일+토요일+공휴일,00:00,00:00,00:00,00:00,00:00,00:00,무료,0,0,,,,,,,,경상남도 창원시청,055-220-4436,35.13001500,128.53207000,2018-06-30
416-2-000022,반동마을공영주차장,공영,노외,경상남도 창원시 마산합포구 구산면 반동리 322-1,경상남도 창원시 마산합포구 구산면 반동리 322-1,23,2,미시행,평일+토요일+공휴일,00:00,00:00,00:00,00:00,00:00,00:00,무료,0,0,,,,,,,,경상남도 창원시청,055-220-4436,35.08405500,128.58404800,2018-06-30
416-2-000018,해양드라마세트장공영주차장,공영,노외,경상남도 창원시 마산합포구 구산면 석곡리 765-1,경상남도 창원시 마산합포구 구산면 석곡리 765-1,29,2,미시행,평일+토요일+공휴일,00:00,00:00,00:00,00:00,00:00,00:00,무료,0,0,,,,,,,,경상남도 창원시청,055-220-4436,35.11088000,128.54376100,2018-06-30
416-2-000014,원전마을공영주차장,공영,노외,경상남도 창원시 마산합포구 이순신로 673,경상남도 창원시 마산합포구 구산면 심리 22-6,165,2,미시행,평일+토요일+공휴일,00:00,00:00,00:00,00:00,00:00,00:00,무료,0,0,,,,,,,,경상남도 창원시청,055-220-4436,35.06802800,128.63076200,2018-06-30
416-2-000016,심리마을공영주차장,공영,노외,경상남도 창원시 마산합포구 구산면 심리 564-12,경상남도 창원시 마산합포구 구산면 심리 564-12,24,2,미시행,평일+토요일+공휴일,00:00,00:00,00:00,00:00,00:00,00:00,무료,0,0,,,,,,,,경상남도 창원시청,055-220-4436,35.07021800,128.60800600,2018-06-30
416-2-000021,신촌마을공영주차장,공영,노외,경상남도 창원시 마산합포구 구산면 옥계리 826-1,경상남도 창원시 마산합포구 구산면 옥계리 826-1,30,2,미시행,평일+토요일+공휴일,00:00,00:00,00:00,00:00,00:00,00:00,무료,0,0,,,,,,,,경상남도 창원시청,055-220-4436,35.09474100,128.58698700,2018-06-30
416-2-000015,유산마을공영주차장,공영,노외,경상남도 창원시 마산합포구 유산군령로 270,경상남도 창원시 마산합포구 구산면 유산리 115-3,13,2,미시행,평일+토요일+공휴일,00:00,00:00,00:00,00:00,00:00,00:00,무료,0,0,,,,,,,,경상남도 창원시청,055-220-4436,35.13147000,128.56319800,2018-06-30
416-2-000004,부림동공영유료주차장,공영,노외,경상남도 창원시 마산합포구 부림동 106-95,경상남도 창원시 마산합포구 부림동 106-95,30,1,미시행,평일+토요일+공휴일,08:00,00:00,08:00,00:00,08:00,00:00,유료,30,500,10,200,16,6000,85000,현금,승용차기준,경상남도 창원시청,055-220-4436,35.20412300,128.57070800,2018-06-30
416-2-000006,어린교공영유료주차장,공영,노외,경상남도 창원시 마산합포구 산호동 2,경상남도 창원시 마산합포구 산호동 2,135,1,미시행,평일+토요일+공휴일,08:00,00:00,08:00,00:00,08:00,00:00,유료,30,500,10,200,16,6000,85000,현금,승용차기준,경상남도 창원시청,055-220-4436,35.22036100,128.58740700,2018-06-30
416-2-000003,합포동공영유료주차장,공영,노외,경상남도 창원시 마산합포구 합포동3길 13-2,경상남도 창원시 마산합포구 산호동 338-22,59,1,미시행,평일+토요일+공휴일,08:00,00:00,08:00,00:00,08:00,00:00,유료,30,500,10,200,16,6000,85000,현금,승용차기준,경상남도 창원시청,055-220-4436,35.20889800,128.58311800,2018-06-30
416-2-000044,동서동공영주차장,공영,노외,경상남도 창원시 마산합포구 동서북6길 3,경상남도 창원시 마산합포구 수성동 75-3,5,1,미시행,평일+토요일+공휴일,00:00,00:00,00:00,00:00,00:00,00:00,무료,0,0,,,,,,,,경상남도 창원시청,055-220-4436,35.20412900,128.57385800,2018-06-30
416-2-000034,깡통골목공영주차장,공영,노외,"경상남도 창원시 마산합포구 신창동 3-12, 22","경상남도 창원시 마산합포구 신창동 3-12, 22",12,1,미시행,평일+토요일+공휴일,00:00,00:00,00:00,00:00,00:00,00:00,무료,0,0,,,,,,,,경상남도 창원시청,055-220-4436,35.18877000,128.55995900,2018-06-30
416-2-000033,예곡마을공영주차장,공영,노외,경상남도 창원시 마산합포구 예곡동 347-3,경상남도 창원시 마산합포구 예곡동 347-3,7,1,미시행,평일+토요일+공휴일,00:00,00:00,00:00,00:00,00:00,00:00,무료,0,0,,,,,,,,경상남도 창원시청,055-220-4436,35.17052900,128.54537600,2018-06-30
416-2-000008,오동동2공영유료주차장,공영,노외,경상남도 창원시 마산합포구 오동동 60-27,경상남도 창원시 마산합포구 오동동 60-27,54,1,미시행,평일+토요일+공휴일,08:00,00:00,08:00,00:00,08:00,00:00,유료,30,500,10,200,16,6000,85000,현금,승용차기준,경상남도 창원시청,055-220-4436,35.20935000,128.57898000,2018-06-30
416-2-000007,오동동1공영유료주차장,공영,노외,경상남도 창원시 마산합포구 오동동 88-3,경상남도 창원시 마산합포구 오동동 88-3,67,1,미시행,평일+토요일+공휴일,08:00,00:00,08:00,00:00,08:00,00:00,유료,30,500,10,200,16,6000,85000,현금,승용차기준,경상남도 창원시청,055-220-4436,35.20905700,128.57819900,2018-06-30
416-2-000045,우산동공영주차장,공영,노외,경상남도 창원시 마산합포구 첨단산업로 3,경상남도 창원시 마산합포구 우산동 300,65,1,미시행,평일+토요일+공휴일,00:00,00:00,00:00,00:00,00:00,00:00,무료,0,0,,,,,,,,경상남도 창원시청,055-220-4437,35.15878000,128.55005000,2018-06-30
416-2-000048,청량산공영주차장,공영,노외,경상남도 창원시 마산합포구 월영동 134-85,경상남도 창원시 마산합포구 월영동 134-85,32,1,미시행,평일+토요일+공휴일,00:00,00:00,00:00,00:00,00:00,00:00,무료,0,0,,,,,,,,경상남도 창원시청,055-220-4440,35.18763400,128.55233100,2018-06-30
416-2-000032,월영동공영주차장,공영,노외,"경상남도 창원시 마산합포구 월영동 265,265-2,271,694-1","경상남도 창원시 마산합포구 월영동 265,265-2,271,694-1",29,1,미시행,평일+토요일+공휴일,00:00,00:00,00:00,00:00,00:00,00:00,무료,0,0,,,,,,,,경상남도 창원시청,055-220-4436,35.18205700,128.56333800,2018-06-30
416-2-000030,월영마을공영주차장,공영,노외,경상남도 창원시 마산합포구 월영동 711,경상남도 창원시 마산합포구 월영동 711,49,1,미시행,평일+토요일+공휴일,00:00,00:00,00:00,00:00,00:00,00:00,무료,0,0,,,,,,,,경상남도 창원시청,055-220-4436,35.17137800,128.56081700,2018-06-30
416-2-000031,만날제공연장주차장,공영,노외,경상남도 창원시 마산합포구 만날고개1길 60-7,경상남도 창원시 마산합포구 월영동 산175-11,40,1,미시행,평일+토요일+공휴일,00:00,00:00,00:00,00:00,00:00,00:00,무료,0,0,,,,,,,,경상남도 창원시청,055-220-4436,35.18525000,128.54916300,2018-06-30
416-2-000005,자산동공영유료주차장,공영,노외,경상남도 창원시 마산합포구 자산동 20,경상남도 창원시 마산합포구 자산동 20,34,1,미시행,평일+토요일+공휴일,08:00,00:00,08:00,00:00,08:00,00:00,유료,30,500,10,200,16,6000,85000,현금,승용차기준,경상남도 창원시청,055-220-4436,35.20528800,128.56507100,2018-06-30
416-2-000009,중성동1공영유료주차장,공영,노외,경상남도 창원시 마산합포구 중성동 171-1,경상남도 창원시 마산합포구 중성동 171-1,31,1,미시행,평일+토요일+공휴일,08:00,00:00,08:00,00:00,08:00,00:00,유료,30,500,10,200,16,6000,85000,현금,승용차기준,경상남도 창원시청,055-220-4436,35.20983100,128.57455700,2018-06-30
416-2-000010,중성동2공영유료주차장,공영,노외,경상남도 창원시 마산합포구 중성동 62-15,경상남도 창원시 마산합포구 중성동 62-15,15,1,미시행,평일+토요일+공휴일,08:00,00:00,08:00,00:00,08:00,00:00,유료,30,500,10,200,16,6000,85000,현금,승용차기준,경상남도 창원시청,055-220-4436,35.20915700,128.57604600,2018-06-30
416-2-000025,교동마을공영주차장,공영,노외,경상남도 창원시 마산합포구 진동면 교동리 704-1,경상남도 창원시 마산합포구 진동면 교동리 704-1,13,2,미시행,평일+토요일+공휴일,00:00,00:00,00:00,00:00,00:00,00:00,무료,0,0,,,,,,,,경상남도 창원시청,055-220-4436,35.11870500,128.49515600,2018-06-30
416-2-000024,신기마을공영주차장,공영,노외,경상남도 창원시 마산합포구 진동면 신기리 443-1,경상남도 창원시 마산합포구 진동면 신기리 443-1,36,2,미시행,평일+토요일+공휴일,00:00,00:00,00:00,00:00,00:00,00:00,무료,0,0,,,,,,,,경상남도 창원시청,055-220-4436,35.11195000,128.47588500,2018-06-30
416-2-000023,입곡마을공영주차장,공영,노외,경상남도 창원시 마산합포구 진동면 인곡리 741,경상남도 창원시 마산합포구 진동면 인곡리 741,15,2,미시행,평일+토요일+공휴일,00:00,00:00,00:00,00:00,00:00,00:00,무료,0,0,,,,,,,,경상남도 창원시청,055-220-4436,35.13644100,128.51768200,2018-06-30
416-2-000043,덕기마을공영주차장,공영,노외,경상남도 창원시 마산합포구 진북면 덕곡리 48,경상남도 창원시 마산합포구 진북면 덕곡리 48,13,2,미시행,평일+토요일+공휴일,00:00,00:00,00:00,00:00,00:00,00:00,무료,0,0,,,,,,,,경상남도 창원시청,055-220-4436,35.12396300,128.48342600,2018-06-30
416-2-000040,진북산단제2공영주차장,공영,노외,경상남도 창원시 마산합포구 진북면 망곡리 387,경상남도 창원시 마산합포구 진북면 망곡리 387,22,2,미시행,평일+토요일+공휴일,00:00,00:00,00:00,00:00,00:00,00:00,무료,0,0,,,,,,,,경상남도 창원시청,055-220-4436,35.13702200,128.48408500,2018-06-30
416-2-000041,진북산단제3공영주차장,공영,노외,경상남도 창원시 마산합포구 진북면 망곡리 429,경상남도 창원시 마산합포구 진북면 망곡리 429,37,2,미시행,평일+토요일+공휴일,00:00,00:00,00:00,00:00,00:00,00:00,무료,0,0,,,,,,,,경상남도 창원시청,055-220-4436,35.13443700,128.48355400,2018-06-30
416-2-000047,연동마을공영주차장,공영,노외,경상남도 창원시 마산합포구 연동1길 38,경상남도 창원시 마산합포구 진북면 망곡리 73-4,4,2,미시행,평일+토요일+공휴일,00:00,00:00,00:00,00:00,00:00,00:00,무료,0,0,,,,,,,,경상남도 창원시청,055-220-4439,35.13736300,128.48666600,2018-06-30
416-2-000042,진북산단제4공영주차장,공영,노외,경상남도 창원시 마산합포구 진북면 신촌리 12-11,경상남도 창원시 마산합포구 진북면 신촌리 12-11,110,2,미시행,평일+토요일+공휴일,00:00,00:00,00:00,00:00,00:00,00:00,무료,0,0,,,,,,,,경상남도 창원시청,055-220-4436,35.13325400,128.48171400,2018-06-30
416-2-000039,진북산단제1공영주차장,공영,노외,경상남도 창원시 마산합포구 진북면 신촌리 9-3,경상남도 창원시 마산합포구 진북면 신촌리 9-3,174,2,미시행,평일+토요일+공휴일,00:00,00:00,00:00,00:00,00:00,00:00,무료,0,0,,,,,,,,경상남도 창원시청,055-220-4436,35.13948700,128.48077500,2018-06-30
416-2-000026,추곡마을공영주차장,공영,노외,"경상남도 창원시 마산합포구 진북면 추곡리 197,198-1","경상남도 창원시 마산합포구 진북면 추곡리 197,198-1",16,2,미시행,평일+토요일+공휴일,00:00,00:00,00:00,00:00,00:00,00:00,무료,0,0,,,,,,,,경상남도 창원시청,055-220-4436,35.16543800,128.48104800,2018-06-30
416-2-000029,상촌마을공영주차장,공영,노외,"경상남도 창원시 마산합포구 진전면 금암리 297,298","경상남도 창원시 마산합포구 진전면 금암리 297,298",30,2,미시행,평일+토요일+공휴일,00:00,00:00,00:00,00:00,00:00,00:00,무료,0,0,,,,,,,,경상남도 창원시청,055-220-4436,35.13807200,128.39312000,2018-06-30
416-2-000038,적석산공영주차장,공영,노외,경상남도 창원시 마산합포구 진전면 일암리 820-1,경상남도 창원시 마산합포구 진전면 일암리 820-1,63,2,미시행,평일+토요일+공휴일,00:00,00:00,00:00,00:00,00:00,00:00,무료,0,0,,,,,,,,경상남도 창원시청,055-220-4436,35.12009200,128.37192500,2018-06-30
416-2-000028,미천마을공영주차장,공영,노외,경상남도 창원시 마산합포구 진전면 평암리 202-1,경상남도 창원시 마산합포구 진전면 평암리 202-1,8,2,미시행,평일+토요일+공휴일,00:00,00:00,00:00,00:00,00:00,00:00,무료,0,0,,,,,,,,경상남도 창원시청,055-220-4436,35.15008500,128.40234200,2018-06-30
416-2-000027,상평마을공영주차장,공영,노외,"경상남도 창원시 마산합포구 진전면 평암리 714,715-1","경상남도 창원시 마산합포구 진전면 평암리 714,715-1",33,2,미시행,평일+토요일+공휴일,00:00,00:00,00:00,00:00,00:00,00:00,무료,0,0,,,,,,,,경상남도 창원시청,055-220-4436,35.16013100,128.39558600,2018-06-30
416-2-000036,북마산가구거리공영주차장,공영,노외,경상남도 창원시 마산합포구 북성로 33-1,"경상남도 창원시 마산합포구 추산동 1-57, 1-62",24,1,미시행,평일+토요일+공휴일,00:00,00:00,00:00,00:00,00:00,00:00,무료,0,0,,,,,,,,경상남도 창원시청,055-220-4436,35.21025700,128.57215500,2018-06-30
416-2-000046,월영동주민센터공영주차장,공영,노외,경상남도 창원시 마산합포구 해운동 14-6,경상남도 창원시 마산합포구 해운동 14-6,17,1,미시행,평일+토요일+공휴일,00:00,00:00,00:00,00:00,00:00,00:00,무료,0,0,,,,,,,,경상남도 창원시청,055-220-4438,35.17906300,128.55778400,2018-06-30
417-2-000002,삼계공영주차장,공영,노외,경상남도 창원시 마산회원구 내서읍 삼계6길 26,경상남도 창원시 마산회원구 내서읍 삼계리 26-1,96,1,미시행,평일+토요일+공휴일,08:00,00:00,08:00,00:00,08:00,00:00,유료,30,500,10,200,6,60000,85000,현금+신용카드,"경차, 장애인차량 50프로 할인",경상남도 창원시청,055-230-4453,35.23336800,128.50336700,2018-06-30
417-2-000010,삼계2공영주차장,공영,노외,경상남도 창원시 마산회원구 내서읍 삼계리 32-4,경상남도 창원시 마산회원구 내서읍 삼계리 32-4,33,1,미시행,평일+토요일+공휴일,00:00,00:00,00:00,00:00,00:00,00:00,무료,0,0,,,,,,,,경상남도 창원시청,055-230-4453,35.23077100,128.50423600,2018-06-30
417-2-000009,삼계1공영주차장,공영,노외,경상남도 창원시 마산회원구 삼계리 33-6,경상남도 창원시 마산회원구 내서읍 삼계리 33-6,33,1,미시행,평일+토요일+공휴일,00:00,00:00,00:00,00:00,00:00,00:00,무료,0,0,,,,,,,,경상남도 창원시청,055-230-4453,35.23073000,128.50384100,2018-06-30
417-2-000015,신감마을공영주차장,공영,노외,경상남도 창원시 마산회원구 내서읍 신감리 1207-10,경상남도 창원시 마산회원구 내서읍 신감리 1207-10,84,1,미시행,평일+토요일+공휴일,00:00,00:00,00:00,00:00,00:00,00:00,무료,0,0,,,,,,,,경상남도 창원시청,055-230-4453,35.20525500,128.51084300,2018-06-30
417-2-000013,신목마을공영주차장,공영,노외,경상남도 창원시 마산회원구 내서읍 신감리 454,경상남도 창원시 마산회원구 내서읍 신감리 454,34,1,미시행,평일+토요일+공휴일,00:00,00:00,00:00,00:00,00:00,00:00,무료,0,0,,,,,,,,경상남도 창원시청,055-230-4453,35.19194100,128.49423300,2018-06-30
417-2-000014,안성마을공영주차장,공영,노외,경상남도 창원시 마산회원구 내서읍 안성리 472-4,경상남도 창원시 마산회원구 내서읍 안성리 472-4,35,1,미시행,평일+토요일+공휴일,00:00,00:00,00:00,00:00,00:00,00:00,무료,0,0,,,,,,,,경상남도 창원시청,055-230-4453,35.26474800,128.55070200,2018-06-30
417-2-000007,중리1공영주차장,공영,노외,경상남도 창원시 마산회원구 내서읍 중리 1041-1,경상남도 창원시 마산회원구 내서읍 중리 1041-1,18,1,미시행,평일+토요일+공휴일,00:00,00:00,00:00,00:00,00:00,00:00,무료,0,0,,,,,,,,경상남도 창원시청,055-230-4453,35.24976900,128.50978000,2018-06-30
417-2-000008,중리2공영주차장,공영,노외,경상남도 창원시 마산회원구 내서읍 중리 1049-2,경상남도 창원시 마산회원구 내서읍 중리 1049-2,41,1,미시행,평일+토요일+공휴일,00:00,00:00,00:00,00:00,00:00,00:00,무료,0,0,,,,,,,,경상남도 창원시청,055-230-4453,35.24728900,128.50808600,2018-06-30
417-2-000011,봉암공단공영주차장,공영,노외,경상남도 창원시 마산회원구 봉암동 659,경상남도 창원시 마산회원구 봉암동 659,522,1,미시행,평일+토요일+공휴일,00:00,00:00,00:00,00:00,00:00,00:00,무료,0,0,,,,,,,,경상남도 창원시청,055-230-4453,35.21628300,128.59558200,2018-06-30
417-2-000006,마산역번개시장공영주차장,공영,노외,경상남도 창원시 마산회원구 석전동16길 13,경상남도 창원시 마산회원구 석전동 227-2,44,1,미시행,평일+토요일+공휴일,08:00,00:00,08:00,00:00,08:00,00:00,유료,30,500,10,200,6,60000,85000,현금+신용카드,"경차, 장애인차량 50프로 할인",경상남도 창원시청,055-230-4453,35.23650800,128.57859400,2018-06-30
417-2-000005,합성동상가공영주차장,공영,노외,경상남도 창원시 마산회원구 합성남로 22,경상남도 창원시 마산회원구 양덕동 89-4,33,1,미시행,평일+토요일+공휴일,08:00,00:00,08:00,00:00,08:00,00:00,유료,30,500,10,200,6,60000,85000,현금+신용카드,"경차, 장애인차량 50프로 할인",경상남도 창원시청,055-230-4453,35.23743000,128.58483300,2018-06-30
417-2-000004,합성2동공영주차장,공영,노외,경상남도 창원시 마산회원구 합성남2길 60,경상남도 창원시 마산회원구 합성동 205-2,22,1,미시행,평일+토요일+공휴일,08:00,00:00,08:00,00:00,08:00,00:00,유료,30,500,10,200,6,60000,85000,현금+신용카드,"경차, 장애인차량 50프로 할인",경상남도 창원시청,055-230-4453,35.23922600,128.58719000,2018-06-30
417-2-000012,현대프라자 앞 공영주차장,공영,노외,경상남도 창원시 마산회원구 호계리 804,경상남도 창원시 마산회원구 호계리 804,94,1,미시행,평일+토요일+공휴일,00:00,00:00,00:00,00:00,00:00,00:00,무료,0,0,,,,,,,,경상남도 창원시청,055-230-4453,35.25649400,128.52181400,2018-06-30
417-2-000001,회성동공영주차장,공영,노외,경상남도 창원시 마산회원구 회성남3길 6 일원,경상남도 창원시 마산회원구 회성동 421 일원,67,1,미시행,평일+토요일+공휴일,08:00,00:00,08:00,00:00,08:00,00:00,유료,30,500,10,200,6,60000,85000,현금+신용카드,"경차, 장애인차량 50프로 할인",경상남도 창원시청,055-230-4453,35.23424700,128.55740100,2018-06-30
417-2-000003,회원공영주차장,공영,노외,경상남도 창원시 마산회원구 회원동16길 54,경상남도 창원시 마산회원구 회원동 30-60,34,1,미시행,평일+토요일+공휴일,08:00,00:00,08:00,00:00,08:00,00:00,유료,30,500,10,200,6,60000,85000,현금+신용카드,"경차, 장애인차량 50프로 할인",경상남도 창원시청,055-230-4453,35.22029200,128.57098900,2018-06-30
417-2-000010,삼계2공영주차장,공영,노외,경상남도 창원시 마산회원구 내서읍 삼계리 32-4,경상남도 창원시 마산회원구 내서읍 삼계리 32-4,33,1,미시행,평일+토요일+공휴일,00:00,00:00,00:00,00:00,00:00,00:00,무료,0,0,,,,,,,,경상남도 창원시청,055-230-4455,35.23077100,128.50423600,2018-06-30
417-2-000005,합성동상가공영주차장,공영,노외,경상남도 창원시 마산회원구 합성남로 22,경상남도 창원시 마산회원구 양덕동 89-4,33,1,미시행,평일+토요일+공휴일,08:00,00:00,08:00,00:00,08:00,00:00,유료,30,500,10,200,6,6000,85000,현금+신용카드,"경차, 장애인차량 50프로 할인",경상남도 창원시청,055-230-4455,35.23743000,128.58483300,2018-06-30
417-2-000004,합성2동공영주차장,공영,노외,경상남도 창원시 마산회원구 합성남2길 60,경상남도 창원시 마산회원구 합성동 205-2,22,1,미시행,평일+토요일+공휴일,08:00,00:00,08:00,00:00,08:00,00:00,유료,30,500,10,200,6,6000,85000,현금+신용카드,"경차, 장애인차량 50프로 할인",경상남도 창원시청,055-230-4455,35.23922600,128.58719000,2018-06-30
417-2-000003,회원공영주차장,공영,노외,경상남도 창원시 마산회원구 회원동16길 54,경상남도 창원시 마산회원구 회원동 30-60,34,1,미시행,평일+토요일+공휴일,08:00,00:00,08:00,00:00,08:00,00:00,유료,30,500,10,200,6,6000,85000,현금+신용카드,"경차, 장애인차량 50프로 할인",경상남도 창원시청,055-230-4455,35.22029200,128.57098900,2018-06-30
417-2-000002,삼계공영주차장,공영,노외,경상남도 창원시 마산회원구 내서읍 삼계6길 26,경상남도 창원시 마산회원구 내서읍 삼계리 26-1,96,1,미시행,평일+토요일+공휴일,08:00,00:00,08:00,00:00,08:00,00:00,유료,30,500,10,200,6,6000,85000,현금+신용카드,"경차, 장애인차량 50프로 할인",경상남도 창원시청,055-230-4455,35.23336800,128.50336700,2018-06-30
417-2-000001,회성동공영주차장,공영,노외,경상남도 창원시 마산회원구 회성남3길 6 일원,경상남도 창원시 마산회원구 회성동 421 일원,67,1,미시행,평일+토요일+공휴일,08:00,00:00,08:00,00:00,08:00,00:00,유료,30,500,10,200,6,6000,85000,현금+신용카드,"경차, 장애인차량 50프로 할인",경상남도 창원시청,055-230-4455,35.23424700,128.55740100,2018-06-30
417-2-000009,삼계1공영주차장,공영,노외,경상남도 창원시 마산회원구 삼계리 33-6,경상남도 창원시 마산회원구 내서읍 삼계리 33-6,33,1,미시행,평일+토요일+공휴일,00:00,00:00,00:00,00:00,00:00,00:00,무료,0,0,,,,,,,,경상남도 창원시청,055-230-4455,35.23073000,128.50384100,2018-06-30
417-2-000008,중리2공영주차장,공영,노외,경상남도 창원시 마산회원구 내서읍 중리 1049-2,경상남도 창원시 마산회원구 내서읍 중리 1049-2,41,1,미시행,평일+토요일+공휴일,00:00,00:00,00:00,00:00,00:00,00:00,무료,0,0,,,,,,,,경상남도 창원시청,055-230-4455,35.24728900,128.50808600,2018-06-30
417-2-000007,중리1공영주차장,공영,노외,경상남도 창원시 마산회원구 내서읍 중리 1041-1,경상남도 창원시 마산회원구 내서읍 중리 1041-1,18,1,미시행,평일+토요일+공휴일,00:00,00:00,00:00,00:00,00:00,00:00,무료,0,0,,,,,,,,경상남도 창원시청,055-230-4455,35.24976900,128.50978000,2018-06-30
417-2-000006,마산역번개시장공영주차장,공영,노외,경상남도 창원시 마산회원구 석전동16길 13,경상남도 창원시 마산회원구 석전동 227-2,44,1,미시행,평일+토요일+공휴일,08:00,00:00,08:00,00:00,08:00,00:00,유료,30,500,10,200,6,6000,85000,현금+신용카드,"경차, 장애인차량 50프로 할인",경상남도 창원시청,055-230-4455,35.23650800,128.57859400,2018-06-30
417-2-000015,신감마을공영주차장,공영,노외,경상남도 창원시 마산회원구 내서읍 신감리 1207-10,경상남도 창원시 마산회원구 내서읍 신감리 1207-10,84,1,미시행,평일+토요일+공휴일,00:00,00:00,00:00,00:00,00:00,00:00,무료,0,0,,,,,,,,경상남도 창원시청,055-230-4455,35.20525500,128.51084300,2018-06-30
417-2-000014,안성마을공영주차장,공영,노외,경상남도 창원시 마산회원구 내서읍 안성리 472-4,경상남도 창원시 마산회원구 내서읍 안성리 472-4,35,1,미시행,평일+토요일+공휴일,00:00,00:00,00:00,00:00,00:00,00:00,무료,0,0,,,,,,,,경상남도 창원시청,055-230-4455,35.26474800,128.55070200,2018-06-30
417-2-000013,신목마을공영주차장,공영,노외,경상남도 창원시 마산회원구 내서읍 신감리 454,경상남도 창원시 마산회원구 내서읍 신감리 454,34,1,미시행,평일+토요일+공휴일,00:00,00:00,00:00,00:00,00:00,00:00,무료,0,0,,,,,,,,경상남도 창원시청,055-230-4455,35.19194100,128.49423300,2018-06-30
417-2-000012,현대프라자 앞 공영주차장,공영,노외,경상남도 창원시 마산회원구 호계리 804,경상남도 창원시 마산회원구 호계리 804,94,1,미시행,평일+토요일+공휴일,00:00,00:00,00:00,00:00,00:00,00:00,무료,0,0,,,,,,,,경상남도 창원시청,055-230-4455,35.25649400,128.52181400,2018-06-30
417-2-000011,봉암공단공영주차장,공영,노외,경상남도 창원시 마산회원구 봉암동 659,경상남도 창원시 마산회원구 봉암동 659,522,1,미시행,평일+토요일+공휴일,00:00,00:00,00:00,00:00,00:00,00:00,무료,0,0,,,,,,,,경상남도 창원시청,055-230-4455,35.21628300,128.59558200,2018-06-30
415-2-000116,남양동 40-4 임시 공영주차장,공영,노외,경상남도 창원시 성산구 남양동 40-4,경상남도 창원시 성산구 남양동 40-4,25,1,미시행,평일+토요일+공휴일,00:00,00:00,00:00,00:00,00:00,00:00,무료,0,0,,,,,,,,경상남도 창원시청,055-272-4431,35.20410300,128.70444400,2018-06-30
415-2-000115,남양동 31-6 공영주차장,공영,노외,경상남도 창원시 성산구 남양동 31-6,경상남도 창원시 성산구 남양동 31-6,34,1,미시행,평일+토요일+공휴일,00:00,00:00,00:00,00:00,00:00,00:00,무료,0,0,,,,,,,,경상남도 창원시청,055-272-4431,35.20750300,128.70408900,2018-06-30
415-2-000114,대방동 394-2  공영주차장,공영,노외,경상남도 창원시 성산구 대방동 394-2,경상남도 창원시 성산구 대방동 394-2,42,1,미시행,평일+토요일+공휴일,00:00,00:00,00:00,00:00,00:00,00:00,무료,0,0,,,,,,,,경상남도 창원시청,055-272-4431,35.21449400,128.70993400,2018-06-30
415-2-000113,가음정동주민센터앞공영주차장,공영,노외,경상남도 창원시 성산구 남양동 502-5,경상남도 창원시 성산구 남양동 502-5,148,1,미시행,평일+토요일+공휴일,00:00,00:00,00:00,00:00,00:00,00:00,무료,0,0,,,,,,,,경상남도 창원시청,055-272-4431,35.21209800,128.69962600,2018-06-30
415-2-000112,가음동 41-9 공영주차장,공영,노외,경상남도 창원시 성산구 가음동 41-9,경상남도 창원시 성산구 가음동 41-9,43,1,미시행,평일+토요일+공휴일,00:00,00:00,00:00,00:00,00:00,00:00,무료,0,0,,,,,,,,경상남도 창원시청,055-272-4431,35.20482800,128.70032400,2018-06-30
415-2-000111,가음동 37-5 공영주차장,공영,노외,경상남도 창원시 성산구 가음동 37-5,경상남도 창원시 성산구 가음동 37-5,45,1,미시행,평일+토요일+공휴일,00:00,00:00,00:00,00:00,00:00,00:00,무료,0,0,,,,,,,,경상남도 창원시청,055-272-4431,35.20547900,128.70271600,2018-06-30
415-2-000110,가음동 체육공원 공영주차장,공영,노외,경상남도 창원시 성산구 가음동 31,경상남도 창원시 성산구 가음동 31,76,1,미시행,평일+토요일+공휴일,00:00,00:00,00:00,00:00,00:00,00:00,무료,0,0,,,,,,,,경상남도 창원시청,055-272-4431,35.20744100,128.69004100,2018-06-30
415-2-000109,장미공원 공영주차장,공영,노외,경상남도 창원시 성산구 가음동 31,경상남도 창원시 성산구 가음동 31,94,1,미시행,평일+토요일+공휴일,00:00,00:00,00:00,00:00,00:00,00:00,무료,0,0,,,,,,,,경상남도 창원시청,055-272-4431,35.20744100,128.69004100,2018-06-30
415-2-000108,기업사랑공원 공영주차장,공영,노외,경상남도 창원시 성산구 가음동 30,경상남도 창원시 성산구 가음동 30,16,1,미시행,평일+토요일+공휴일,00:00,00:00,00:00,00:00,00:00,00:00,무료,0,0,,,,,,,,경상남도 창원시청,055-272-4431,35.20587500,128.69342200,2018-06-30
415-2-000107,남산녹지공원 공영주차장,공영,노외,경상남도 창원시 성산구 가음동 29,경상남도 창원시 성산구 가음동 29,103,1,미시행,평일+토요일+공휴일,00:00,00:00,00:00,00:00,00:00,00:00,무료,0,0,,,,,,,,경상남도 창원시청,055-272-4431,35.20439800,128.69555800,2018-06-30
415-2-000106,가음동 24-2 임시 공영주차장,공영,노외,경상남도 창원시 성산구 가음동 24-2,경상남도 창원시 성산구 가음동 24-2,60,1,미시행,평일+토요일+공휴일,00:00,00:00,00:00,00:00,00:00,00:00,무료,0,0,,,,,,,,경상남도 창원시청,055-272-4431,35.20652900,128.69687500,2018-06-30
415-2-000105,가음동 22-6 임시 공영주차장,공영,노외,경상남도 창원시 성산구 가음동 22-6,경상남도 창원시 성산구 가음동 22-6,52,1,미시행,평일+토요일+공휴일,00:00,00:00,00:00,00:00,00:00,00:00,무료,0,0,,,,,,,,경상남도 창원시청,055-272-4431,35.20806200,128.69588300,2018-06-30
415-2-000104,가음동 18 임시 공영주차장,공영,노외,경상남도 창원시 성산구 가음동 18,경상남도 창원시 성산구 가음동 18,112,1,미시행,평일+토요일+공휴일,00:00,00:00,00:00,00:00,00:00,00:00,무료,0,0,,,,,,,,경상남도 창원시청,055-272-4431,35.20604700,128.69943200,2018-06-30
415-2-000103,가음동 20-6 임시 공영주차장,공영,노외,경상남도 창원시 성산구 가음동 20-6,경상남도 창원시 성산구 가음동 20-6,136,1,미시행,평일+토요일+공휴일,00:00,00:00,00:00,00:00,00:00,00:00,무료,0,0,,,,,,,,경상남도 창원시청,055-272-4431,35.20677000,128.69900500,2018-06-30
415-2-000102,가음동 20-2 임시 공영주차장,공영,노외,경상남도 창원시 성산구 가음동 20-2,경상남도 창원시 성산구 가음동 20-2,62,1,미시행,평일+토요일+공휴일,00:00,00:00,00:00,00:00,00:00,00:00,무료,0,0,,,,,,,,경상남도 창원시청,055-272-4431,35.20733100,128.69925900,2018-06-30
415-2-000101,가음동 19-1 임시 공영주차장,공영,노외,경상남도 창원시 성산구 가음동 19-1,경상남도 창원시 성산구 가음동 19-1,41,1,미시행,평일+토요일+공휴일,00:00,00:00,00:00,00:00,00:00,00:00,무료,0,0,,,,,,,,경상남도 창원시청,055-272-4431,35.20482500,128.69837300,2018-06-30
415-2-000176,성주동 111-1 임시주차장,공영,노외,경상남도 창원시 성산구 성주동 111-1,경상남도 창원시 성산구 성주동 111-1,28,1,미시행,평일+토요일+공휴일,00:00,00:00,00:00,00:00,00:00,00:00,무료,0,0,,,,,,,,경상남도 창원시청,055-272-4431,32.57390000,126.87030000,2018-06-30
415-2-000175,천선일반산단 공영주차장(2),공영,노외,경상남도 창원시 성산구 천선동 89-4,경상남도 창원시 성산구 성주동 89-4,34,1,미시행,평일+토요일+공휴일,00:00,00:00,00:00,00:00,00:00,00:00,무료,0,0,,,,,,,,경상남도 창원시청,055-272-4431,35.18430000,128.70650000,2018-06-30
415-2-000174,천선일반산단 공영주차장(1),공영,노외,경상남도 창원시 성산구 천선동 83-2,경상남도 창원시 성산구 성주동 83-2,34,1,미시행,평일+토요일+공휴일,00:00,00:00,00:00,00:00,00:00,00:00,무료,0,0,,,,,,,,경상남도 창원시청,055-272-4431,32.57390000,126.87030000,2018-06-30
415-2-000160,용호마을 공영주차장,공영,노외,경상남도 창원시 성산구 귀곡동 754-4,경상남도 창원시 성산구 귀곡동 754-4,44,1,미시행,평일+토요일+공휴일,00:00,00:00,00:00,00:00,00:00,00:00,무료,0,0,,,,,,,,경상남도 창원시청,055-272-4431,35.17880700,128.62065900,2018-06-30
415-2-000159,웅남주민쉼터 공영주차장,공영,노외,경상남도 창원시 성산구 양곡동 산47-11,경상남도 창원시 성산구 양곡동 산47-11,7,1,미시행,평일+토요일+공휴일,00:00,00:00,00:00,00:00,00:00,00:00,무료,0,0,,,,,,,,경상남도 창원시청,055-272-4431,35.19785300,128.63323600,2018-06-30
415-2-000090,사파동 90-1 임시 공영주차장,공영,노외,경상남도 창원시 성산구 사파동 90-1,경상남도 창원시 성산구 사파동 90-1,12,1,미시행,평일+토요일+공휴일,00:00,00:00,00:00,00:00,00:00,00:00,무료,0,0,,,,,,,,경상남도 창원시청,055-272-4431,35.22107800,128.70296000,2018-06-30
415-2-000089,창원지방법원옆 공영주차장,공영,노외,경상남도 창원시 성산구 사파동 64-2,경상남도 창원시 성산구 사파동 64-2,152,1,미시행,평일+토요일+공휴일,00:00,00:00,00:00,00:00,00:00,00:00,무료,0,0,,,,,,,,경상남도 창원시청,055-272-4431,35.22393600,128.70270900,2018-06-30
415-2-000088,토월초등학교뒤 임시 공영주차장,공영,노외,경상남도 창원시 성산구 사파동 46-3,경상남도 창원시 성산구 사파동 46-3,65,1,미시행,평일+토요일+공휴일,00:00,00:00,00:00,00:00,00:00,00:00,무료,0,0,,,,,,,,경상남도 창원시청,055-272-4431,35.22824200,128.70089400,2018-06-30
415-2-000087,사파동 39-18  임시 공영주차장,공영,노외,경상남도 창원시 성산구 사파동 39-18,경상남도 창원시 성산구 사파동 39-18,23,1,미시행,평일+토요일+공휴일,00:00,00:00,00:00,00:00,00:00,00:00,무료,0,0,,,,,,,,경상남도 창원시청,055-272-4431,35.22976000,128.70363900,2018-06-30
415-2-000086,사파동 30-22  임시 공영주차장,공영,노외,경상남도 창원시 성산구 사파동 30-22,경상남도 창원시 성산구 사파동 30-22,14,1,미시행,평일+토요일+공휴일,00:00,00:00,00:00,00:00,00:00,00:00,무료,0,0,,,,,,,,경상남도 창원시청,055-272-4431,35.22982200,128.69954400,2018-06-30
415-2-000085,사파동 8  임시 공영주차장,공영,노외,경상남도 창원시 성산구 사파동 8,경상남도 창원시 성산구 사파동 8,22,1,미시행,평일+토요일+공휴일,00:00,00:00,00:00,00:00,00:00,00:00,무료,0,0,,,,,,,,경상남도 창원시청,055-272-4431,35.22609900,128.69978800,2018-06-30
415-2-000084,창원지방검찰청옆 공영주차장,공영,노외,경상남도 창원시 성산구 사파동 6,경상남도 창원시 성산구 사파동 6,49,1,미시행,평일+토요일+공휴일,00:00,00:00,00:00,00:00,00:00,00:00,무료,0,0,,,,,,,,경상남도 창원시청,055-272-4431,35.22630100,128.70040300,2018-06-30
415-2-000083,가음정천복개(대방동) 공영주차장,공영,노외,경상남도 창원시 성산구 대방동 394-2,경상남도 창원시 성산구 대방동 394-2,18,1,미시행,평일+토요일+공휴일,00:00,00:00,00:00,00:00,00:00,00:00,무료,0,0,,,,,,,,경상남도 창원시청,055-272-4431,35.21449400,128.70993400,2018-06-30
415-2-000082,남양치안센터옆 공영주차장,공영,노외,경상남도 창원시 성산구 대방동 344-1,경상남도 창원시 성산구 대방동 344-1,39,1,미시행,평일+토요일+공휴일,00:00,00:00,00:00,00:00,00:00,00:00,무료,0,0,,,,,,,,경상남도 창원시청,055-272-4431,35.21534000,128.70916400,2018-06-30
415-2-000081,대방동우체국옆 공영주차장,공영,노외,경상남도 창원시 성산구 대방동 338-2,경상남도 창원시 성산구 대방동 338-2,60,1,미시행,평일+토요일+공휴일,00:00,00:00,00:00,00:00,00:00,00:00,무료,0,0,,,,,,,,경상남도 창원시청,055-272-4431,35.21643000,128.70797400,2018-06-30
415-2-000080,창원노인종합복지회관 공영주차장,공영,노외,경상남도 창원시 성산구 대방동 330,경상남도 창원시 성산구 대방동 330,159,1,미시행,평일+토요일+공휴일,00:00,00:00,00:00,00:00,00:00,00:00,무료,0,0,,,,,,,,경상남도 창원시청,055-272-4431,35.21656900,128.70502300,2018-06-30
415-2-000079,대방체육공원 공영주차장,공영,노외,경상남도 창원시 성산구 대방동 263,경상남도 창원시 성산구 대방동 263,47,1,미시행,평일+토요일+공휴일,00:00,00:00,00:00,00:00,00:00,00:00,무료,0,0,,,,,,,,경상남도 창원시청,055-272-4431,35.21666700,128.71071400,2018-06-30
415-2-000078,상남동 토월천사거리 공영주차장,공영,노외,경상남도 창원시 성산구 상남동 502-1,경상남도 창원시 성산구 상남동 502-1,36,1,미시행,평일+토요일+공휴일,00:00,00:00,00:00,00:00,00:00,00:00,무료,0,0,,,,,,,,경상남도 창원시청,055-272-4431,35.21709400,128.68084100,2018-06-30
415-2-000077,상남동 93-2 임시 공영주차장,공영,노외,경상남도 창원시 성산구 상남동 93-2,경상남도 창원시 성산구 상남동 93-2,20,1,미시행,평일+토요일+공휴일,00:00,00:00,00:00,00:00,00:00,00:00,무료,0,0,,,,,,,,경상남도 창원시청,055-272-4431,35.21702100,128.68482000,2018-06-30
415-2-000076,상남동 94-2 임시 공영주차장,공영,노외,경상남도 창원시 성산구 상남동 94-2,경상남도 창원시 성산구 상남동 94-2,53,1,미시행,평일+토요일+공휴일,00:00,00:00,00:00,00:00,00:00,00:00,무료,0,0,,,,,,,,경상남도 창원시청,055-272-4431,35.21725000,128.68446300,2018-06-30
415-2-000075,상남동 58-2 임시 공영주차장,공영,노외,경상남도 창원시 성산구 상남동 58-2,경상남도 창원시 성산구 상남동 58-2,11,1,미시행,평일+토요일+공휴일,00:00,00:00,00:00,00:00,00:00,00:00,무료,0,0,,,,,,,,경상남도 창원시청,055-272-4431,35.21644300,128.68340400,2018-06-30
415-2-000074,중앙여고옆 임시 공영주차장,공영,노외,경상남도 창원시 성산구 상남동 45-5,경상남도 창원시 성산구 상남동 45-5,26,1,미시행,평일+토요일+공휴일,00:00,00:00,00:00,00:00,00:00,00:00,무료,0,0,,,,,,,,경상남도 창원시청,055-272-4431,35.21407000,128.69283600,2018-06-30
415-2-000073,대상공원(외동배수지 앞) 공영주차장,공영,노외,경상남도 창원시 성산구 내동 628,경상남도 창원시 성산구 내동 628,35,1,미시행,평일+토요일+공휴일,00:00,00:00,00:00,00:00,00:00,00:00,무료,0,0,,,,,,,,경상남도 창원시청,055-272-4431,35.21873500,128.66141300,2018-06-30
415-2-000072,"중앙동 3-2,3 임시 공영주차장",공영,노외,경상남도 창원시 성산구 중앙동 3-2,경상남도 창원시 성산구 중앙동 3-2,20,1,미시행,평일+토요일+공휴일,00:00,00:00,00:00,00:00,00:00,00:00,무료,0,0,,,,,,,,경상남도 창원시청,055-272-4431,35.23026800,128.67478100,2018-06-30
415-2-000071,중앙동 155-6 임시 공영주차장,공영,노외,경상남도 창원시 성산구 중앙동 155-6,경상남도 창원시 성산구 중앙동 155-6,12,1,미시행,평일+토요일+공휴일,00:00,00:00,00:00,00:00,00:00,00:00,무료,0,0,,,,,,,,경상남도 창원시청,055-272-4431,35.21979200,128.67322300,2018-06-30
415-2-000070,중앙동 2-6 임시 공영주차장,공영,노외,경상남도 창원시 성산구 중앙동 2-6,경상남도 창원시 성산구 중앙동 2-6,10,1,미시행,평일+토요일+공휴일,00:00,00:00,00:00,00:00,00:00,00:00,무료,0,0,,,,,,,,경상남도 창원시청,055-272-4431,35.23097300,128.67357700,2018-06-30
415-2-000069,중앙체육공원 공영주차장,공영,노외,경상남도 창원시 성산구 상남동 68,경상남도 창원시 성산구 상남동 68,44,1,미시행,평일+토요일+공휴일,00:00,00:00,00:00,00:00,00:00,00:00,무료,0,0,,,,,,,,경상남도 창원시청,055-272-4431,35.21628400,128.67526100,2018-06-30
415-2-000068,중앙동 157-1 공영주차장,공영,노외,경상남도 창원시 성산구 중앙동 157-1,경상남도 창원시 성산구 중앙동 157-1,5,1,미시행,평일+토요일+공휴일,00:00,00:00,00:00,00:00,00:00,00:00,무료,0,0,,,,,,,,경상남도 창원시청,055-272-4431,35.21972800,128.67186300,2018-06-30
415-2-000067,중앙동 156-1 공영주차장,공영,노외,경상남도 창원시 성산구 중앙동 156-1,경상남도 창원시 성산구 중앙동 156-1,6,1,미시행,평일+토요일+공휴일,00:00,00:00,00:00,00:00,00:00,00:00,무료,0,0,,,,,,,,경상남도 창원시청,055-272-4431,35.21992800,128.67246000,2018-06-30
415-2-000066,중앙동 153-1 공영주차장,공영,노외,경상남도 창원시 성산구 중앙동 153-1,경상남도 창원시 성산구 중앙동 153-1,15,1,미시행,평일+토요일+공휴일,00:00,00:00,00:00,00:00,00:00,00:00,무료,0,0,,,,,,,,경상남도 창원시청,055-272-4431,35.22076800,128.67336400,2018-06-30
415-2-000065,중앙동주민센터옆 공영주차장,공영,노외,경상남도 창원시 성산구 용지로21번길,경상남도 창원시 성산구 중앙동 150-2,8,1,미시행,평일+토요일+공휴일,00:00,00:00,00:00,00:00,00:00,00:00,무료,0,0,,,,,,,,경상남도 창원시청,055-272-4431,35.22124000,128.67340200,2018-06-30
415-2-000064,중앙동 82-5 임시 공영주차장,공영,노외,경상남도 창원시 성산구 중앙동 119,경상남도 창원시 성산구 중앙동 119,72,1,미시행,평일+토요일+공휴일,00:00,00:00,00:00,00:00,00:00,00:00,무료,0,0,,,,,,,,경상남도 창원시청,055-272-4431,35.22388700,128.67632000,2018-06-30
415-2-000063,중앙동 102-3  차량 견인보관소,공영,노외,경상남도 창원시 성산구 중앙대로21번길,경상남도 창원시 성산구 중앙동 102-3,64,1,미시행,평일+토요일+공휴일,00:00,00:00,00:00,00:00,00:00,00:00,무료,0,0,,,,,,,,경상남도 창원시청,055-272-4431,35.21925300,128.67396100,2018-06-30
415-2-000062,중앙동 86-6 임시 공영주차장,공영,노외,경상남도 창원시 성산구 용지로121번길,경상남도 창원시 성산구 중앙동 86-6,7,1,미시행,평일+토요일+공휴일,00:00,00:00,00:00,00:00,00:00,00:00,무료,0,0,,,,,,,,경상남도 창원시청,055-272-4431,35.22621800,128.67891200,2018-06-30
415-2-000061,중앙동 88-5 임시 공영주차장,공영,노외,경상남도 창원시 성산구 용지로123번길,경상남도 창원시 성산구 중앙동 88-5,7,1,미시행,평일+토요일+공휴일,00:00,00:00,00:00,00:00,00:00,00:00,무료,0,0,,,,,,,,경상남도 창원시청,055-272-4431,35.22667200,128.67929500,2018-06-30
415-2-000060,중앙동 82-1 임시 공영주차장,공영,노외,경상남도 창원시 성산구 원이대로580번길,경상남도 창원시 성산구 중앙동 82-1,7,1,미시행,평일+토요일+공휴일,00:00,00:00,00:00,00:00,00:00,00:00,무료,0,0,,,,,,,,경상남도 창원시청,055-272-4431,35.22557200,128.67758700,2018-06-30
415-2-000059,중앙동 68  임시 공영주차장,공영,노외,경상남도 창원시 성산구 원이대로580번길,경상남도 창원시 성산구 중앙동 68,10,1,미시행,평일+토요일+공휴일,00:00,00:00,00:00,00:00,00:00,00:00,무료,0,0,,,,,,,,경상남도 창원시청,055-272-4431,35.22535100,128.67756100,2018-06-30
415-2-000058,중앙동 삼각지 공영주차장,공영,노외,경상남도 창원시 성산구 용지로107번길,경상남도 창원시 성산구 중앙동 67-21,15,1,미시행,평일+토요일+공휴일,00:00,00:00,00:00,00:00,00:00,00:00,무료,0,0,,,,,,,,경상남도 창원시청,055-272-4431,35.22531200,128.67817900,2018-06-30
415-2-000057,중앙동 66-1 임시공영주차장,공영,노외,경상남도 창원시 성산구 원이대로580번길,경상남도 창원시 성산구 중앙동 66-1,18,1,미시행,평일+토요일+공휴일,00:00,00:00,00:00,00:00,00:00,00:00,무료,0,0,,,,,,,,경상남도 창원시청,055-272-4431,35.22536900,128.67724000,2018-06-30
415-2-000056,중앙동 27-6 임시 공영주차장,공영,노외,경상남도 창원시 성산구 원이대로552번길,경상남도 창원시 성산구 중앙동 27-6,7,1,미시행,평일+토요일+공휴일,00:00,00:00,00:00,00:00,00:00,00:00,무료,0,0,,,,,,,,경상남도 창원시청,055-272-4431,35.22712900,128.67479100,2018-06-30
415-2-000055,중앙동 16-4 임시 공영주차장,공영,노외,경상남도 창원시 성산구 외동반림로130번길,경상남도 창원시 성산구 중앙동 16-4,12,1,미시행,평일+토요일+공휴일,00:00,00:00,00:00,00:00,00:00,00:00,무료,0,0,,,,,,,,경상남도 창원시청,055-272-4431,35.22902500,128.67418300,2018-06-30
415-2-000054,중앙동 6-8 임시 공영주차장,공영,노외,경상남도 창원시 성산구 외동반림로142번길,경상남도 창원시 성산구 중앙동 6-8,12,1,미시행,평일+토요일+공휴일,00:00,00:00,00:00,00:00,00:00,00:00,무료,0,0,,,,,,,,경상남도 창원시청,055-272-4431,35.22961900,128.67542600,2018-06-30
415-2-000158,귀산동 505-1 공영주차장,공영,노외,경상남도 창원시 성산구 귀산동 505-1,경상남도 창원시 성산구 귀산동 505-1,40,1,미시행,평일+토요일+공휴일,00:00,00:00,00:00,00:00,00:00,00:00,무료,0,0,,,,,,,,경상남도 창원시청,055-272-4431,35.16398500,128.61092700,2018-06-30
415-2-000157,웅남공단 공영주차장(2),공영,노외,경상남도 창원시 성산구 신촌동 503-13,경상남도 창원시 성산구 신촌동 503-13,52,1,미시행,평일+토요일+공휴일,00:00,00:00,00:00,00:00,00:00,00:00,무료,0,0,,,,,,,,경상남도 창원시청,055-272-4431,35.20956700,128.64830000,2018-06-30
415-2-000156,웅남공단 공영주차장,공영,노외,경상남도 창원시 성산구 신촌동 121,경상남도 창원시 성산구 신촌동 121,180,1,미시행,평일+토요일+공휴일,00:00,00:00,00:00,00:00,00:00,00:00,무료,0,0,,,,,,,,경상남도 창원시청,055-272-4431,35.21308300,128.64651400,2018-06-30
415-2-000155,봉산마을 공영주차장,공영,노외,경상남도 창원시 성산구 양곡동 974-3,경상남도 창원시 성산구 양곡동 974-3,46,1,미시행,평일+토요일+공휴일,00:00,00:00,00:00,00:00,00:00,00:00,무료,0,0,,,,,,,,경상남도 창원시청,055-272-4431,35.19885800,128.62726100,2018-06-30
415-2-000154,신촌동 12-8 임시 공영주차장,공영,노외,경상남도 창원시 성산구 신촌동 12-8,경상남도 창원시 성산구 신촌동 12-8,53,1,미시행,평일+토요일+공휴일,00:00,00:00,00:00,00:00,00:00,00:00,무료,0,0,,,,,,,,경상남도 창원시청,055-272-4431,35.20569200,128.62681500,2018-06-30
415-2-000153,웅남복지관옆 공영주차장,공영,노외,경상남도 창원시 성산구 양곡동 982,경상남도 창원시 성산구 양곡동 982,21,1,미시행,평일+토요일+공휴일,00:00,00:00,00:00,00:00,00:00,00:00,무료,0,0,,,,,,,,경상남도 창원시청,055-272-4431,35.19646800,128.62344400,2018-06-30
415-2-000152,양곡동 830-1 임시 공영주차장,공영,노외,경상남도 창원시 성산구 양곡동 830-1,경상남도 창원시 성산구 양곡동 830-1,200,1,미시행,평일+토요일+공휴일,00:00,00:00,00:00,00:00,00:00,00:00,무료,0,0,,,,,,,,경상남도 창원시청,055-272-4431,35.21185000,128.62133100,2018-06-30
415-2-000151,신촌동 504-3 임시 공영주차장,공영,노외,경상남도 창원시 성산구 신촌동 504-3,경상남도 창원시 성산구 신촌동 504-3,155,1,미시행,평일+토요일+공휴일,00:00,00:00,00:00,00:00,00:00,00:00,무료,0,0,,,,,,,,경상남도 창원시청,055-272-4431,35.20642400,128.65232700,2018-06-30
415-2-000150,신촌동 134-7 공영주차장,공영,노외,경상남도 창원시 성산구 신촌동 134-7,경상남도 창원시 성산구 신촌동 134-7,20,1,미시행,평일+토요일+공휴일,00:00,00:00,00:00,00:00,00:00,00:00,무료,0,0,,,,,,,,경상남도 창원시청,055-272-4431,35.21379800,128.63901000,2018-06-30
415-2-000149,신촌동 91 임시 공영주차장,공영,노외,경상남도 창원시 성산구 신촌동 91,경상남도 창원시 성산구 신촌동 91,450,1,미시행,평일+토요일+공휴일,00:00,00:00,00:00,00:00,00:00,00:00,무료,0,0,,,,,,,,경상남도 창원시청,055-272-4431,35.21800400,128.64618300,2018-06-30
415-2-000148,신촌동 81-9 임시 공영주차장,공영,노외,경상남도 창원시 성산구 신촌동 81-9,경상남도 창원시 성산구 신촌동 81-9,60,1,미시행,평일+토요일+공휴일,00:00,00:00,00:00,00:00,00:00,00:00,무료,0,0,,,,,,,,경상남도 창원시청,055-272-4431,35.20647700,128.63541600,2018-06-30
415-2-000147,양곡초등학교정문앞 임시공영주차장,공영,노외,경상남도 창원시 성산구 신촌동 46,경상남도 창원시 성산구 신촌동 46,10,1,미시행,평일+토요일+공휴일,00:00,00:00,00:00,00:00,00:00,00:00,무료,0,0,,,,,,,,경상남도 창원시청,055-272-4431,35.20092600,128.62744000,2018-06-30
415-2-000146,신촌동 22-2 임시 공영주차장,공영,노외,경상남도 창원시 성산구 신촌동 22-2,경상남도 창원시 성산구 신촌동 22-2,18,1,미시행,평일+토요일+공휴일,00:00,00:00,00:00,00:00,00:00,00:00,무료,0,0,,,,,,,,경상남도 창원시청,055-272-4431,35.20138000,128.62875300,2018-06-30
415-2-000145,양곡동 우체국옆 임시 공영주차장,공영,노외,경상남도 창원시 성산구 신촌동 45,경상남도 창원시 성산구 신촌동 45,70,1,미시행,평일+토요일+공휴일,00:00,00:00,00:00,00:00,00:00,00:00,무료,0,0,,,,,,,,경상남도 창원시청,055-272-4431,35.20683100,128.62736100,2018-06-30
415-2-000100,사파동 119-8 임시 공영주차장,공영,노외,경상남도 창원시 성산구 사파동 119-8,경상남도 창원시 성산구 사파동 119-8,11,1,미시행,평일+토요일+공휴일,00:00,00:00,00:00,00:00,00:00,00:00,무료,0,0,,,,,,,,경상남도 창원시청,055-272-4431,35.22222900,128.69792100,2018-06-30
415-2-000099,사파동 63-7 임시 공영주차장,공영,노외,경상남도 창원시 성산구 사파동 63-7,경상남도 창원시 성산구 사파동 63-7,11,1,미시행,평일+토요일+공휴일,00:00,00:00,00:00,00:00,00:00,00:00,무료,0,0,,,,,,,,경상남도 창원시청,055-272-4431,35.22431400,128.70249200,2018-06-30
415-2-000098,사파동 17-5 임시 공영주차장,공영,노외,경상남도 창원시 성산구 사파동 17-5,경상남도 창원시 성산구 사파동 17-5,7,1,미시행,평일+토요일+공휴일,00:00,00:00,00:00,00:00,00:00,00:00,무료,0,0,,,,,,,,경상남도 창원시청,055-272-4431,35.22934600,128.69701700,2018-06-30
415-2-000097,사파동 75-9 임시 공영 주차장,공영,노외,경상남도 창원시 성산구 사파동 75-9,경상남도 창원시 성산구 사파동 75-9,8,1,미시행,평일+토요일+공휴일,00:00,00:00,00:00,00:00,00:00,00:00,무료,0,0,,,,,,,,경상남도 창원시청,055-272-4431,35.22313700,128.70215700,2018-06-30
415-2-000096,사파동 57-7 임시 공영 주차장,공영,노외,경상남도 창원시 성산구 사파동 57-7,경상남도 창원시 성산구 사파동 57-7,9,1,미시행,평일+토요일+공휴일,00:00,00:00,00:00,00:00,00:00,00:00,무료,0,0,,,,,,,,경상남도 창원시청,055-272-4431,35.22606200,128.70261900,2018-06-30
415-2-000144,죽골마을 공영주차장,공영,노외,경상남도 창원시 성산구 불모산동 381-1,경상남도 창원시 성산구 불모산동 381-1,28,1,미시행,평일+토요일+공휴일,00:00,00:00,00:00,00:00,00:00,00:00,무료,0,0,,,,,,,,경상남도 창원시청,055-272-4431,35.19035500,128.72437200,2018-06-30
415-2-000143,솟대공원 임시공영주차장,공영,노외,경상남도 창원시 성산구 성주동 104,경상남도 창원시 성산구 성주동 104,42,1,미시행,평일+토요일+공휴일,00:00,00:00,00:00,00:00,00:00,00:00,무료,0,0,,,,,,,,경상남도 창원시청,055-272-4431,35.19106500,128.70291700,2018-06-30
415-2-000142,불모산동 242-8 공영주차장,공영,노외,경상남도 창원시 성산구 불모산동 242-8,경상남도 창원시 성산구 불모산동 242-8,68,1,미시행,평일+토요일+공휴일,00:00,00:00,00:00,00:00,00:00,00:00,무료,0,0,,,,,,,,경상남도 창원시청,055-272-4431,35.18710600,128.72164900,2018-06-30
415-2-000141,불모산동 296-2  공영주차장,공영,노외,경상남도 창원시 성산구 불모산동 296-2,경상남도 창원시 성산구 불모산동 296-2,92,1,미시행,평일+토요일+공휴일,00:00,00:00,00:00,00:00,00:00,00:00,무료,0,0,,,,,,,,경상남도 창원시청,055-272-4431,35.19031600,128.72205900,2018-06-30
415-2-000140,성주동 170  공영주차장,공영,노외,경상남도 창원시 성산구 성주동 170,경상남도 창원시 성산구 성주동 170,53,1,미시행,평일+토요일+공휴일,00:00,00:00,00:00,00:00,00:00,00:00,무료,0,0,,,,,,,,경상남도 창원시청,055-272-4431,35.19106500,128.70291700,2018-06-30
415-2-000139,성주동 164 공영주차장,공영,노외,경상남도 창원시 성산구 삼정자동 175-2,경상남도 창원시 성산구 삼정자동 175-2,34,1,미시행,평일+토요일+공휴일,00:00,00:00,00:00,00:00,00:00,00:00,무료,0,0,,,,,,,,경상남도 창원시청,055-272-4431,35.19505200,128.71428800,2018-06-30
415-2-000138,성주동 159 공영주차장,공영,노외,경상남도 창원시 성산구 성주동 159,경상남도 창원시 성산구 성주동 159,43,1,미시행,평일+토요일+공휴일,00:00,00:00,00:00,00:00,00:00,00:00,무료,0,0,,,,,,,,경상남도 창원시청,055-272-4431,35.19106500,128.70291700,2018-06-30
415-2-000053,내동 453 임시 공영주차장,공영,노외,경상남도 창원시 성산구 삼동로128번길,경상남도 창원시 성산구 내동 453,59,1,미시행,평일+토요일+공휴일,00:00,00:00,00:00,00:00,00:00,00:00,무료,0,0,,,,,,,,경상남도 창원시청,055-272-4431,35.22081500,128.65908700,2018-06-30
415-2-000095,사파동 21-7 임시 공영 주차장,공영,노외,경상남도 창원시 성산구 사파동 21-7,경상남도 창원시 성산구 사파동 21-7,8,1,미시행,평일+토요일+공휴일,00:00,00:00,00:00,00:00,00:00,00:00,무료,0,0,,,,,,,,경상남도 창원시청,055-272-4431,35.22837800,128.69734600,2018-06-30
415-2-000094,사파중학교옆 공영주차장,공영,노외,경상남도 창원시 성산구 사파정동 628-6,경상남도 창원시 성산구 사파정동 628-6,134,1,미시행,평일+토요일+공휴일,00:00,00:00,00:00,00:00,00:00,00:00,무료,0,0,,,,,,,,경상남도 창원시청,055-272-4431,35.21831600,128.70138900,2018-06-30
415-2-000093,삼익1차아파트 옆 공영주차장,공영,노외,경상남도 창원시 성산구 사파정동 산 88-14,경상남도 창원시 성산구 사파정동 산 88-14,78,1,미시행,평일+토요일+공휴일,00:00,00:00,00:00,00:00,00:00,00:00,무료,0,0,,,,,,,,경상남도 창원시청,055-272-4431,35.21815300,128.69667600,2018-06-30
415-2-000092,사파민원센터옆 임시 공영주차장,공영,노외,경상남도 창원시 성산구 사파동 502-2,경상남도 창원시 성산구 사파동 502-2,31,1,미시행,평일+토요일+공휴일,00:00,00:00,00:00,00:00,00:00,00:00,무료,0,0,,,,,,,,경상남도 창원시청,055-272-4431,35.22220800,128.69848100,2018-06-30
415-2-000091,사파동 137-8 임시 공영주차장,공영,노외,경상남도 창원시 성산구 사파동 137-8,경상남도 창원시 성산구 사파동 137-8,12,1,미시행,평일+토요일+공휴일,00:00,00:00,00:00,00:00,00:00,00:00,무료,0,0,,,,,,,,경상남도 창원시청,055-272-4431,35.22246600,128.69531000,2018-06-30
415-2-000137,성주동 144-2 공영주차장,공영,노외,경상남도 창원시 성산구 성주동 144-2,경상남도 창원시 성산구 성주동 144-2,116,1,미시행,평일+토요일+공휴일,00:00,00:00,00:00,00:00,00:00,00:00,무료,0,0,,,,,,,,경상남도 창원시청,055-272-4431,35.19106500,128.70291700,2018-06-30
415-2-000136,성주주민운동장 공영주차장,공영,노외,경상남도 창원시 성산구 천선동 1216,경상남도 창원시 성산구 천선동 1216,40,1,미시행,평일+토요일+공휴일,00:00,00:00,00:00,00:00,00:00,00:00,무료,0,0,,,,,,,,경상남도 창원시청,055-272-4431,35.18397300,128.69716600,2018-06-30
415-2-000117,남양동 41-1 임시 공영주차장,공영,노외,경상남도 창원시 성산구 남양동 41-1,경상남도 창원시 성산구 남양동 41-1,20,1,미시행,평일+토요일+공휴일,00:00,00:00,00:00,00:00,00:00,00:00,무료,0,0,,,,,,,,경상남도 창원시청,055-272-4431,35.20504200,128.70422200,2018-06-30
415-2-000135,천선동 1155-18 임시 공영주차장,공영,노외,경상남도 창원시 성산구 천선동 1155-18,경상남도 창원시 성산구 천선동 1155-18,25,1,미시행,평일+토요일+공휴일,00:00,00:00,00:00,00:00,00:00,00:00,무료,0,0,,,,,,,,경상남도 창원시청,055-272-4431,35.18672300,128.69410700,2018-06-30
415-2-000134,천선동 154-2 공영주차장,공영,노외,경상남도 창원시 성산구 천선동 154-2,경상남도 창원시 성산구 천선동 154-2,93,1,미시행,평일+토요일+공휴일,00:00,00:00,00:00,00:00,00:00,00:00,무료,0,0,,,,,,,,경상남도 창원시청,055-272-4431,35.18068100,128.71486000,2018-06-30
415-2-000133,성주사 입구 임시 공영주차장,공영,노외,경상남도 창원시 성산구 천선동 148,경상남도 창원시 성산구 천선동 148,195,1,미시행,평일+토요일+공휴일,00:00,00:00,00:00,00:00,00:00,00:00,무료,0,0,,,,,,,,경상남도 창원시청,055-272-4431,35.17829000,128.71461300,2018-06-30
415-2-000132,안민고개 임시 공영주차장,공영,노외,경상남도 창원시 성산구 천선동 산 52-10,경상남도 창원시 성산구 천선동 산 52-10,11,1,미시행,평일+토요일+공휴일,00:00,00:00,00:00,00:00,00:00,00:00,무료,0,0,,,,,,,,경상남도 창원시청,055-272-4431,35.16933900,128.70041600,2018-06-30
415-2-000131,안민동 237 공영주차장,공영,노외,경상남도 창원시 성산구 안민동 237,경상남도 창원시 성산구 안민동 237,37,1,미시행,평일+토요일+공휴일,00:00,00:00,00:00,00:00,00:00,00:00,무료,0,0,,,,,,,,경상남도 창원시청,055-272-4431,35.18741900,128.68972800,2018-06-30
415-2-000130,안민동 산144-7 임시공영주차장,공영,노외,경상남도 창원시 성산구 안민동 산 144-7,경상남도 창원시 성산구 안민동 산 144-7,8,1,미시행,평일+토요일+공휴일,00:00,00:00,00:00,00:00,00:00,00:00,무료,0,0,,,,,,,,경상남도 창원시청,055-272-4431,35.17173200,128.69089900,2018-06-30
415-2-000129,천선동 쓰레기 매립장 입구 임시공영주차장,공영,노외,경상남도 창원시 성산구 안민동 산 144-4,경상남도 창원시 성산구 안민동 산 144-4,10,1,미시행,평일+토요일+공휴일,00:00,00:00,00:00,00:00,00:00,00:00,무료,0,0,,,,,,,,경상남도 창원시청,055-272-4431,35.17173200,128.69089900,2018-06-30
415-2-000128,안민동 124 임시 공영주차장,공영,노외,경상남도 창원시 성산구 안민동 124,경상남도 창원시 성산구 안민동 124,42,1,미시행,평일+토요일+공휴일,00:00,00:00,00:00,00:00,00:00,00:00,무료,0,0,,,,,,,,경상남도 창원시청,055-272-4431,35.18612300,128.69241600,2018-06-30
415-2-000127,안민동 예비군훈련장 임시주차장,공영,노외,경상남도 창원시 성산구 안민동 산92-6,경상남도 창원시 성산구 안민동 산92-6,80,1,미시행,평일+토요일+공휴일,00:00,00:00,00:00,00:00,00:00,00:00,무료,0,0,,,,,,,,경상남도 창원시청,055-272-4431,35.18629600,128.68909400,2018-06-30
415-2-000126,성주동 128-3 공영주차장,공영,노외,경상남도 창원시 성산구 성주동 128-3,경상남도 창원시 성산구 성주동 128-3,45,1,미시행,평일+토요일+공휴일,00:00,00:00,00:00,00:00,00:00,00:00,무료,0,0,,,,,,,,경상남도 창원시청,055-272-4431,35.19106500,128.70291700,2018-06-30
415-2-000125,성주동 70-21 임시 공영주차장,공영,노외,경상남도 창원시 성산구 성주동 70-21,경상남도 창원시 성산구 성주동 70-21,15,1,미시행,평일+토요일+공휴일,00:00,00:00,00:00,00:00,00:00,00:00,무료,0,0,,,,,,,,경상남도 창원시청,055-272-4431,35.18639000,128.69482600,2018-06-30
415-2-000124,남양동 31-8 임시주차장,공영,노외,경상남도 창원시 성산구 남양동 31-8,경상남도 창원시 성산구 남양동 31-8,13,1,미시행,평일+토요일+공휴일,00:00,00:00,00:00,00:00,00:00,00:00,무료,0,0,,,,,,,,경상남도 창원시청,055-272-4431,35.20714400,128.70400100,2018-06-30
415-2-000123,기업사랑공원 공영주차장,공영,노외,경상남도 창원시 성산구 가음동 619,경상남도 창원시 성산구 가음동 619,86,1,미시행,평일+토요일+공휴일,00:00,00:00,00:00,00:00,00:00,00:00,무료,0,0,,,,,,,,경상남도 창원시청,055-272-4431,35.20611100,128.69682900,2018-06-30
415-2-000122,남양동 37번지 임시공영주차장,공영,노외,경상남도 창원시 성산구 남양동 37,경상남도 창원시 성산구 남양동 37,47,1,미시행,평일+토요일+공휴일,00:00,00:00,00:00,00:00,00:00,00:00,무료,0,0,,,,,,,,경상남도 창원시청,055-272-4431,35.20636200,128.70552000,2018-06-30
415-2-000121,가음동 1-5 공영주차장,공영,노외,경상남도 창원시 성산구 가음동 1-5,경상남도 창원시 성산구 가음동 1-5,63,1,미시행,평일+토요일+공휴일,00:00,00:00,00:00,00:00,00:00,00:00,무료,0,0,,,,,,,,경상남도 창원시청,055-272-4431,35.20611100,128.69682900,2018-06-30
415-2-000120,불곡사앞 공영주차장,공영,노외,경상남도 창원시 성산구 대방동 1032,경상남도 창원시 성산구 대방동 1032,69,1,미시행,평일+토요일+공휴일,00:00,00:00,00:00,00:00,00:00,00:00,무료,0,0,,,,,,,,경상남도 창원시청,055-272-4431,35.21021700,128.71659900,2018-06-30
415-2-000119,남양동 버스 회차장 주차장,공영,노외,경상남도 창원시 성산구 남양동 45,경상남도 창원시 성산구 남양동 45,59,1,미시행,평일+토요일+공휴일,00:00,00:00,00:00,00:00,00:00,00:00,무료,0,0,,,,,,,,경상남도 창원시청,055-272-4431,35.20435900,128.70601000,2018-06-30
415-2-000118,남양동43-6 임시 공용주차장,공영,노외,경상남도 창원시 성산구 남양동 43-6,경상남도 창원시 성산구 남양동 43-6,48,1,미시행,평일+토요일+공휴일,00:00,00:00,00:00,00:00,00:00,00:00,무료,0,0,,,,,,,,경상남도 창원시청,055-272-4431,35.20426200,128.70497600,2018-06-30
415-2-000051,반지동 대동그린코아앞 임시 공영주차장,공영,노외,경상남도 창원시 성산구 반지동 512-5,경상남도 창원시 성산구 반지동 512-5,105,1,미시행,평일+토요일+공휴일,00:00,00:00,00:00,00:00,00:00,00:00,무료,0,0,,,,,,,,경상남도 창원시청,055-272-4431,35.24527500,128.67058000,2018-06-30
415-2-000050,반지동 72-8 임시 공영주차장,공영,노외,경상남도 창원시 성산구 반송로42번길,경상남도 창원시 성산구 반지동 72-8,18,1,미시행,평일+토요일+공휴일,00:00,00:00,00:00,00:00,00:00,00:00,무료,0,0,,,,,,,,경상남도 창원시청,055-272-4431,35.23901100,128.66112900,2018-06-30
415-2-000049,반지동 52-10 임시 공영주차장,공영,노외,경상남도 창원시 성산구 충혼로179번길,경상남도 창원시 성산구 반지동 52-10,8,1,미시행,평일+토요일+공휴일,00:00,00:00,00:00,00:00,00:00,00:00,무료,0,0,,,,,,,,경상남도 창원시청,055-272-4431,35.24138600,128.66468200,2018-06-30
415-2-000052,내동공원 공영 주차장,공영,노외,경상남도 창원시 성산구 내동 380-6,경상남도 창원시 성산구 내동 380-6,19,1,미시행,평일+토요일+공휴일,00:00,00:00,00:00,00:00,00:00,00:00,무료,0,0,,,,,,,,경상남도 창원시청,055-272-4431,35.22184500,128.66732800,2018-06-30
415-2-000048,반지동 44-6 임시 공영주차장,공영,노외,경상남도 창원시 성산구 반송로81번길,경상남도 창원시 성산구 반지동 44-6,7,1,미시행,평일+토요일+공휴일,00:00,00:00,00:00,00:00,00:00,00:00,무료,0,0,,,,,,,,경상남도 창원시청,055-272-4431,35.24229100,128.66555800,2018-06-30
415-2-000047,반지동 44-3 임시 공영주차장,공영,노외,경상남도 창원시 성산구 반송로81번길,경상남도 창원시 성산구 반지동 44-3,7,1,미시행,평일+토요일+공휴일,00:00,00:00,00:00,00:00,00:00,00:00,무료,0,0,,,,,,,,경상남도 창원시청,055-272-4431,35.24269100,128.66548400,2018-06-30
415-2-000046,반지동 42-9 임시 공영주차장,공영,노외,경상남도 창원시 성산구 반지동 42-9,경상남도 창원시 성산구 반지동 42-9,27,1,미시행,평일+토요일+공휴일,00:00,00:00,00:00,00:00,00:00,00:00,무료,0,0,,,,,,,,경상남도 창원시청,055-272-4431,35.24281300,128.66405800,2018-06-30
415-2-000045,반림동 럭키아파트뒤 공영주차장,공영,노외,경상남도 창원시 성산구 반송동 266,경상남도 창원시 성산구 반송동 266,95,1,미시행,평일+토요일+공휴일,00:00,00:00,00:00,00:00,00:00,00:00,무료,0,0,,,,,,,,경상남도 창원시청,055-272-4431,35.24070700,128.66727000,2018-06-30
415-2-000044,수자원공사옆 공영주차장,공영,노외,경상남도 창원시 성산구 충혼로224번길,경상남도 창원시 성산구 반송동 599-21,30,1,미시행,평일+토요일+공휴일,00:00,00:00,00:00,00:00,00:00,00:00,무료,0,0,,,,,,,,경상남도 창원시청,055-272-4431,35.24323000,128.66700100,2018-06-30
415-2-000041,반송공원 공영 주차장,공영,노외,경상남도 창원시 성산구 반림동 6-1,경상남도 창원시 성산구 반림동 6-1,231,1,미시행,평일+토요일+공휴일,00:00,00:00,00:00,00:00,00:00,00:00,무료,0,0,,,,,,,,경상남도 창원시청,055-272-4431,35.23684500,128.67286800,2018-06-30
414-2-000045,가술시장 공영주차장,공영,노외,경상남도 창원시 의창구 가술길1번길 6,경상남도 창원시 의창구 대산면 가술리 384-9번지(가술시장),20,2,미시행,평일+토요일+공휴일,08:00,00:00,08:00,00:00,08:00,00:00,무료,0,0,,,,,,,,경상남도 창원시청,055-212-4435,35.33439500,128.70750300,2018-06-30
414-2-000044,북가술 공영주차장,공영,노외,경상남도 창원시 의창구 가술길34번길 14-6,"경상남도 창원시 의창구 대산면 가술리 279-1번지(,북가술공영주차장)",10,2,미시행,평일+토요일+공휴일,08:00,00:00,08:00,00:00,08:00,00:00,무료,0,0,,,,,,,,경상남도 창원시청,055-212-4435,35.33732800,128.70847500,2018-06-30
414-2-000078,갈전운동장 공영주차장,공영,노외,경상남도 창원시 의창구 갈전로(갈전운동장),경상남도 창원시 의창구 대산면 갈전리 888-3번지(갈전운동장),95,2,미시행,평일+토요일+공휴일,08:00,00:00,08:00,00:00,08:00,00:00,무료,0,0,,,,,,,,경상남도 창원시청,055-212-4435,35.35973000,128.68634400,2018-06-30
414-2-000018,소계동 소계천복개 공영주차장,공영,노외,경상남도 창원시 의창구 금강로341번길,,130,1,미시행,평일+토요일+공휴일,08:00,00:00,08:00,00:00,08:00,00:00,무료,0,0,,,,,,,,경상남도 창원시청,055-212-4435,35.25790500,128.59782900,2018-06-30
414-2-000019,소계동 467-2번지 공영주차장,공영,노외,경상남도 창원시 의창구 금강로379번길,경상남도 창원시 의창구 소계동 467-2번지,8,1,미시행,평일+토요일+공휴일,08:00,00:00,08:00,00:00,08:00,00:00,무료,0,0,,,,,,,,경상남도 창원시청,055-212-4435,35.26101300,128.60058000,2018-06-30
414-2-000047,갈전운동장 부설주차장,공영,노외,경상남도 창원시 의창구 대산면 676-1번지,경상남도 창원시 의창구 대산면 676-1번지(갈전운동장 부설주차장),18,2,미시행,평일+토요일+공휴일,08:00,00:00,08:00,00:00,08:00,00:00,무료,0,0,,,,,,,,경상남도 창원시청,055-212-4435,35.35335400,128.71614100,2018-06-30
414-2-000088,일동이주마을 공영주차장,공영,노외,경상남도 창원시 의창구 대산면 대산북로524번길,경상남도 창원시 의창구 대산면 일동리 920번지,0,2,미시행,평일+토요일+공휴일,08:00,00:00,08:00,00:00,08:00,00:00,무료,0,0,,,,,,,,경상남도 창원시청,055-212-4435,35.36364800,128.69538200,2018-06-30
414-2-000089,모산이주마을 공영주차장,공영,노외,경상남도 창원시 의창구 대산면 모산리 895번지,경상남도 창원시 의창구 대산면 모산리 895번지,14,2,미시행,평일+토요일+공휴일,08:00,00:00,08:00,00:00,08:00,00:00,무료,0,0,,,,,,,,경상남도 창원시청,055-212-4435,35.36206200,128.70698600,2018-06-30
414-2-000046,대산면 갈전리 585번지 공영주차장,공영,노외,경상남도 창원시 의창구 대산북로385번길,경상남도 창원시 의창구 대산면 갈전리 585번지,13,2,미시행,평일+토요일+공휴일,08:00,00:00,08:00,00:00,08:00,00:00,무료,0,0,,,,,,,,경상남도 창원시청,055-212-4435,35.36398700,128.68088700,2018-06-30
414-2-000054,대산면 일동리 667번지 공영주차장,공영,노외,경상남도 창원시 의창구 대산북로538번길,경상남도 창원시 의창구 대산면 일동리 667번지 외,60,2,미시행,평일+토요일+공휴일,08:00,00:00,08:00,00:00,08:00,00:00,무료,0,0,,,,,,,,경상남도 창원시청,055-212-4435,35.36680100,128.69656000,2018-06-30
414-2-000049,대산면 북부리 380-1번지 공영주차장,공영,노외,경상남도 창원시 의창구 대산북로893번길,경상남도 창원시 의창구 대산면 북부리 380-1번지,10,2,미시행,평일+토요일+공휴일,08:00,00:00,08:00,00:00,08:00,00:00,무료,0,0,,,,,,,,경상남도 창원시청,055-212-4435,35.34908400,128.72297900,2018-06-30
414-2-000038,대원 레포츠공원 주차장,공영,노외,경상남도 창원시 의창구 대원동 618-1번지,경상남도 창원시 의창구 대원동 618-1번지,212,1,미시행,평일+토요일+공휴일,08:00,00:00,08:00,00:00,08:00,00:00,무료,0,0,,,,,,,,경상남도 창원시청,055-212-4435,35.23864100,128.65607600,2018-06-30
414-2-000037,대원동 98-2번지 공영주차장,공영,노외,경상남도 창원시 의창구 대원로43번길,경상남도 창원시 의창구 대원동 98-2번지,37,1,미시행,평일+토요일+공휴일,08:00,00:00,08:00,00:00,08:00,00:00,무료,0,0,,,,,,,,경상남도 창원시청,055-212-4435,35.23271300,128.65286800,2018-06-30
414-2-000036,대원동 32-8번지 공영주차장,공영,노외,경상남도 창원시 의창구 대원로53번길,경상남도 창원시 의창구 대원동 32-8번지,17,1,미시행,평일+토요일+공휴일,08:00,00:00,08:00,00:00,08:00,00:00,무료,0,0,,,,,,,,경상남도 창원시청,055-212-4435,35.23337900,128.65284000,2018-06-30
414-2-000012,도계체육공원  공영주차장,공영,노외,경상남도 창원시 의창구 도계동 378번지,경상남도 창원시 의창구 도계동 378-9임 일대 (도계체육공원 입구),77,1,미시행,평일+토요일+공휴일,08:00,00:00,08:00,00:00,08:00,00:00,무료,0,0,,,,,,,,경상남도 창원시청,055-212-4435,35.25791100,128.64297700,2018-06-30
414-2-000082,도계동 465-6 공영주차장,공영,노외,경상남도 창원시 의창구 도계동 원이대로56번길,경상남도 창원시 의창구 도계동 465-6,16,1,미시행,평일+토요일+공휴일,08:00,00:00,08:00,00:00,08:00,00:00,무료,0,0,,,,,,,,경상남도 창원시청,055-212-4435,35.25716500,128.63326000,2018-06-30
414-2-000081,도계동 465-11 공영주차장,공영,노외,경상남도 창원시 의창구 도계동 원이대로56번길,경상남도 창원시 의창구 도계동 465-11,5,1,미시행,평일+토요일+공휴일,08:00,00:00,08:00,00:00,08:00,00:00,무료,0,0,,,,,,,,경상남도 창원시청,055-212-4435,35.25716500,128.63326000,2018-06-30
414-2-000074,도계동 313-3 공영주차장,공영,노외,경상남도 창원시 의창구 도계동 하남천서길15번길,경상남도 창원시 의창구 도계동 313-3,13,1,미시행,평일+토요일+공휴일,08:00,00:00,08:00,00:00,08:00,00:00,무료,0,0,,,,,,,,경상남도 창원시청,055-212-4435,35.26141700,128.63823500,2018-06-30
414-2-000073,도계동 313-1 공영주차장,공영,노외,경상남도 창원시 의창구 도계동 하남천서길51번길,경상남도 창원시 의창구 도계동 313-1,8,1,미시행,평일+토요일+공휴일,08:00,00:00,08:00,00:00,08:00,00:00,무료,0,0,,,,,,,,경상남도 창원시청,055-212-4435,35.26261300,128.63846700,2018-06-30
414-2-000070,동읍 남산리 456번지 공영주차장,공영,노외,경상남도 창원시 의창구 동읍 남산리 456번지,경상남도 창원시 의창구 동읍 남산리 456번지,75,2,미시행,평일+토요일+공휴일,08:00,00:00,08:00,00:00,08:00,00:00,무료,0,0,,,,,,,,경상남도 창원시청,055-212-4435,35.27110000,128.66107500,2018-06-30
414-2-000069,동읍 덕산리 317-2번지 공영주차장,공영,노외,경상남도 창원시 의창구 동읍 덕산리 317-2번지,경상남도 창원시 의창구 동읍 덕산리 317-2번지,9,2,미시행,평일+토요일+공휴일,08:00,00:00,08:00,00:00,08:00,00:00,무료,0,0,,,,,,,,경상남도 창원시청,055-212-4435,35.27302000,128.67412600,2018-06-30
414-2-000068,석산마을 공영주차장,공영,노외,경상남도 창원시 의창구 동읍 석산길16번길,경상남도 창원시 의창구 동읍 석산리 443-10번지 (석산마을 공영주차장),10,2,미시행,평일+토요일+공휴일,08:00,00:00,08:00,00:00,08:00,00:00,무료,0,0,,,,,,,,경상남도 창원시청,055-212-4435,35.31438000,128.65939800,2018-06-30
414-2-000067,동읍 신방리 653-2번지 공영주차장,공영,노외,경상남도 창원시 의창구 동읍 신방리 653-2번지,경상남도 창원시 의창구 동읍 신방리 653-2번지,35,2,미시행,평일+토요일+공휴일,08:00,00:00,08:00,00:00,08:00,00:00,무료,0,0,,,,,,,,경상남도 창원시청,055-212-4435,35.28761500,128.67717200,2018-06-30
414-2-000084,동읍 용잠리 1153-1 공영주차장,공영,노외,경상남도 창원시 의창구 동읍 용잠로35번길 15,경상남도 창원시 의창구 동읍 용잠리 1153-1,112,2,미시행,평일+토요일+공휴일,08:00,00:00,08:00,00:00,08:00,00:00,무료,0,0,,,,,,,,경상남도 창원시청,055-212-4435,35.28098900,128.68838400,2018-06-30
414-2-000086,자여마을 공영주차장,공영,노외,경상남도 창원시 의창구 동읍 자여로 85,경상남도 창원시 의창구 동읍 송정리 165-19,24,2,미시행,평일+토요일+공휴일,08:00,00:00,08:00,00:00,08:00,00:00,무료,0,0,,,,,,,,경상남도 창원시청,055-212-4435,35.27588900,128.70226800,2018-06-30
414-2-000090,봉산마을 공영주차장,공영,노외,경상남도 창원시 의창구 동읍 자여로78번길,경상남도 창원시 의창구 동읍 봉산리 14-4,8,2,미시행,평일+토요일+공휴일,08:00,00:00,08:00,00:00,08:00,00:00,무료,0,0,,,,,,,,경상남도 창원시청,055-212-4435,35.27596800,128.69983300,2018-06-30
414-2-000072,동정동 920-12번지 공영주차장,공영,노외,경상남도 창원시 의창구 동정동 동정길(동정동경로당앞),경상남도 창원시 의창구 동정동 920-12번지,56,1,미시행,평일+토요일+공휴일,08:00,00:00,08:00,00:00,08:00,00:00,무료,0,0,,,,,,,,경상남도 창원시청,055-212-4435,35.26461400,128.61392000,2018-06-30
414-2-000042,삼동공원 부설주차장,공영,노외,경상남도 창원시 의창구 두대로(삼동공원),경상남도 창원시 의창구 삼동동 산 14-1번지 (삼동공원 부설주차장),101,1,미시행,평일+토요일+공휴일,08:00,00:00,08:00,00:00,08:00,00:00,무료,0,0,,,,,,,,경상남도 창원시청,055-212-4435,35.22262300,128.66623200,2018-06-30
414-2-000041,충혼탑 부설주차장,공영,노외,경상남도 창원시 의창구 두대로(충혼탑 앞),경상남도 창원시 의창구 대원동 504번지(충혼탑 부설주차장),135,1,미시행,평일+토요일+공휴일,08:00,00:00,08:00,00:00,08:00,00:00,무료,0,0,,,,,,,,경상남도 창원시청,055-212-4435,35.22262300,128.66623200,2018-06-30
414-2-000091,도계동 913-6 공영주차장,공영,노외,경상남도 창원시 의창구 명곡동 원이대로114번길,경상남도 창원시 의창구 도계동 913-6,8,1,미시행,평일+토요일+공휴일,08:00,00:00,08:00,00:00,08:00,00:00,무료,0,0,,,,,,,,경상남도 창원시청,055-212-4435,35.25204900,128.63626300,2018-06-30
414-2-000075,명서동 109-17 공영주차장,공영,노외,경상남도 창원시 의창구 명곡동 원이대로206번길,경상남도 창원시 의창구 명서동 109-17,14,1,미시행,평일+토요일+공휴일,08:00,00:00,08:00,00:00,08:00,00:00,무료,0,0,,,,,,,,경상남도 창원시청,055-212-4435,35.24287100,128.64156200,2018-06-30
414-2-000010,명서동 210번지 공영주차장,공영,노외,경상남도 창원시 의창구 명서동 210번지,경상남도 창원시 의창구 명서동 210번지,70,1,미시행,평일+토요일+공휴일,08:00,00:00,08:00,00:00,08:00,00:00,무료,0,0,,,,,,,,경상남도 창원시청,055-212-4435,35.23926400,128.64752200,2018-06-30
